id,hotelid,hotelname,address,city,country,zipcode,propertytype,starrating,latitude,longitude,Source,url,curr
46406,1771651,Mediteran Bungalow Galeb,Vukovarska 7,Omis,Croatia,21310,Holiday parks,4,43.44012441,16.68250496,2,https://www.booking.com/hotel/hr/bungalow-luxury-mobile-homes-omis.en-gb.html,EUR
46407,177167,Hotel Polonia,Plac Teatralny 5,Torun,Poland,,Hotels,3,53.0123291,18.60379982,5,https://www.agoda.com/en-gb/hotel-polonia/hotel/torun-pl.html,EUR
46408,1771675,Rifugio Sass Bece,"Belvedere del Pordoi,1",Canazei,Italy,38032,Hotels,3,46.4779196,11.81334972,2,http://www.booking.com/hotel/it/rifugio-sass-bece.en-gb.html,EUR
46409,177168,Madalena Hotel,Mykonos,Mykonos,Greece,84600,Hotels,3,37.45231628,25.32984924,5,https://www.agoda.com/en-gb/madalena-hotel/hotel/mykonos-gr.html,EUR
46410,1771718,Pension Morenfeld,Mair im Korn Strasse 2,Lagundo,Italy,39022,Hotels,3,46.68277953,11.13173599,2,http://www.booking.com/hotel/it/pension-morenfeld-lagundo.en-gb.html,EUR
46411,1771733,Boutique Hotel Three Lilies,Narodni 3,Frantiskovy Lazne,Czech Republic,,Hotels,4,50.11849563,12.34979035,2,http://www.booking.com/hotel/cz/three-lilies.en-gb.html,EUR
46412,177175,MPM Hotel Sport,"100, Pirin Str",Bansko,Bulgaria,2770,Hotels,4,41.82478853,23.47764373,2,http://www.booking.com/hotel/bg/sport.en-gb.html,BGN
46413,177176,Family Hotel Santo Bansko,6 St.Ivan Rilski Str,Bansko,Bulgaria,2770,Hotels,3,41.82960333,23.48144978,2,http://www.booking.com/hotel/bg/santo-bansko.en-gb.html,BGN
46414,177179,Villas Jagoda & Malina,Borovets,Borovets,Bulgaria,2010,Holiday parks,3,42.27528449,23.61851603,2,http://www.booking.com/hotel/bg/villa-settlements.en-gb.html,BGN
49405,1819215,Pansion Gaspar,Portorusa 13,Biograd na Moru,Croatia,23210,Bed and breakfasts,3,43.92547206,15.45833123,2,https://www.booking.com/hotel/hr/pansion-gaspar.en-gb.html,EUR
49406,181922,DORMERO Schlosshotel Reichenschwand,Schlossweg 8,Reichenschwand,Germany,91244,Hotels,4,49.51085818,11.37523234,2,http://www.booking.com/hotel/de/dormero-schlosshotel.en-gb.html,EUR
49407,181926,Hotel Restaurant Baryton,2 Rue Des Acacias,Saint-Marcel,France,27950,Hotels,3,49.1046421,1.46274537,2,http://www.booking.com/hotel/fr/restaurant-baryton.en-gb.html,EUR
49408,181927,Le Chateau de Mei Lese,"23, Val de Mer",La Croix-Valmer,France,83420,Hotels,3,43.19925711,6.56295173,2,http://www.booking.com/hotel/fr/chateau-de-mei-lese.en-gb.html,EUR
49409,18193,Lilla Radmannen,Radmansgatan 67 & 69,Stockholm,Sweden,11360,Hotels,3,59.33928313,18.05466771,2,http://www.booking.com/hotel/se/lilla-radmannen.en-gb.html,SEK
49410,1819306,Hotel Polo,Via Perossaro 1466,San Felice sul Panaro,Italy,41038,Hotels,2,44.83349541,11.12023072,2,http://www.booking.com/hotel/it/polo-san-felice-sul-panaro.en-gb.html,EUR
49411,181934,Logis L'Auberge de Larressingle,Coulomet,Larressingle,France,32100,Hotels,3,43.94429478,0.3128998,2,http://www.booking.com/hotel/fr/logis-l-auberge-de-larressingle.en-gb.html,EUR
49412,1819452,Areal Letnich sportu,Predni Vyton 94,Predni Vyton,Czech Republic,,Bed and breakfasts,3,48.63084013,14.17142129,2,http://www.booking.com/hotel/cz/areal-letnich-sportu.en-gb.html,EUR
49413,181951,Hotel Montchapet Dijon Centre,26 rue Jacques Cellerier,Dijon,France,21000,Hotels,2,47.32742402,5.03345892,2,http://www.booking.com/hotel/fr/montchapet.en-gb.html,EUR
49414,181952,Logis Hotel Du Delta,"25 Bis, Av. De La Cote Dargent",Biganos,France,33380,Hotels,2,44.63358541,-0.97769737,2,http://www.booking.com/hotel/fr/logis-du-delta.en-gb.html,EUR
49415,181953,Logis Doubs Rivage,"8, Rue De La Chapelle",Charette,France,71270,Hotels,2,46.91652452,5.19977599,2,http://www.booking.com/hotel/fr/logis-doubs-rivage.en-gb.html,EUR
49416,1819536,Der Florenberg - Gipfel fur Geniesser,Am Florenberg 2,Kunzell,Germany,36093,Hotels,3,50.52332047,9.72001746,2,http://www.booking.com/hotel/de/der-florenberg-gipfel-fur-geniesser.en-gb.html,EUR
49417,181954,Villa Arena Hotel,1 Place Camille Pelletan,Carry-le-Rouet,France,13620,Hotels,3,43.33262897,5.15190661,2,http://www.booking.com/hotel/fr/villa-arena.en-gb.html,EUR
49418,181955,Hotel Amiraute,17 Rue Marechal Foch,Cannes,France,6400,Hotels,3,43.55361796,7.01856047,2,http://www.booking.com/hotel/fr/amiraute-cannes.en-gb.html,EUR
49419,181958,ibis Lorient Centre Gare,9 cours Chazelles,Lorient,France,56100,Hotels,3,47.7551583,-3.36374223,2,http://www.booking.com/hotel/fr/ibis-lorient-centre-gare.en-gb.html,EUR
49420,1819584,B&B Cool Centre Zagreb,Ulica Nikole Tesle 14,Zagreb,Croatia,10000,Bed and breakfasts,4,45.81134168,15.97486774,2,http://www.booking.com/hotel/hr/cool-centre-zagreb.en-gb.html,EUR
49421,181959,Hotel & Spa des Gorges du Verdon - Chateaux et Hotels Collection,Route de La Maline,La Palud sur Verdon,France,4120,Hotels,4,43.77533343,6.34465277,2,http://www.booking.com/hotel/fr/hotel-spa-des-gorges-du-verdon.en-gb.html,EUR
49422,1819597,B&B Hotel Marseille Estaque,ZAC de Saumaty Seon Rue Pascal Xavier Coste,Marseille,France,13016,Hotels,2,43.36052262,5.33734818,2,http://www.booking.com/hotel/fr/b-amp-b-marseille-estaque.en-gb.html,EUR
49423,1819627,Camp Gabrje,Volarje 57,Gabrje,Slovenia,5220,Campsites,2,46.19717395,13.69615316,2,http://www.booking.com/hotel/si/camp-gabrje.en-gb.html,EUR
49424,181972,Hotel Landhaus Feckl,Keltenweg 1,Boblingen,Germany,71139,Hotels,4,48.66107918,8.9547506,2,http://www.booking.com/hotel/de/landhaus-feckl-boblingen-ehningen.en-gb.html,EUR
49425,181976,Feckl's Apart Hotel,Altdorfer Weg 2,Boblingen,Germany,71139,Hotels,4,48.65585349,8.94486398,2,http://www.booking.com/hotel/de/feckl-s-apart.en-gb.html,EUR
49426,1819766,Hotel Restaurant du Plomb du Cantal,Le Bourg Albepierre,Murat,France,15300,Hotels,3,45.07854528,2.83229208,2,http://www.booking.com/hotel/fr/restaurant-du-plomb-du-cantal.en-gb.html,EUR
49427,18198,Hotel Tornet,Bergaliden 21,Helsingborg,Sweden,,Hotels,3,56.04981097,12.70026572,2,http://www.booking.com/hotel/se/accome-apartments-tornet.en-gb.html,SEK
49428,181983,Hotel Ekke Nekkepenn,Waasterstigh 19,Nebel,Germany,25946,Hotels,3,54.65292643,8.35367936,2,http://www.booking.com/hotel/de/fruhstuckshotel-ekke-nekkepenn.en-gb.html,EUR
49429,1819899,Hotel Albamaris,Augusta Senoe 40,Biograd na Moru,Croatia,23210,Hotels,3,43.9345394,15.4528223,2,http://www.booking.com/hotel/hr/albamaris-biograd-na-moru.en-gb.html,EUR
49430,1819910,Camping les Chenes,420 route du Boulodrome,Chauzon,France,7120,Campsites,2,44.49013295,4.36157734,2,http://www.booking.com/hotel/fr/camping-les-chenes.en-gb.html,EUR
49431,182000,Boutique-Hotel Antica Posta,Via Borgo,Ascona,Switzerland,6612,Hotels,3,46.15551117,8.76717165,2,http://www.booking.com/hotel/ch/albergo-antica-posta.en-gb.html,CHF
49432,182001,Hotel Schweizerhof Lenzerheide,Voa Principala 39,Lenzerheide,Switzerland,7078,Hotels,4,46.72743144,9.55765486,2,http://www.booking.com/hotel/ch/schweizerhof-lenzerheide.en-gb.html,CHF
49433,182002,Hotel Lenzerhorn,Voa Principala 41,Lenzerheide,Switzerland,7078,Hotels,4,46.72810803,9.55760658,2,http://www.booking.com/hotel/ch/lenzerhorn.en-gb.html,CHF
49434,182004,Atrium Hotel Blume,Kurplatz 4,Baden,Switzerland,5400,Hotels,3,47.48051446,8.3136262,2,http://www.booking.com/hotel/ch/atrium-blume.en-gb.html,CHF
49435,1820075,Camping De La Ferme Des Aulnes,Fresne,Nampont-Saint-Martin,France,80120,Campsites,4,50.33611462,1.71262868,2,http://www.booking.com/hotel/fr/camping-de-la-ferme-des-aulnes.en-gb.html,EUR
49436,182008,Guesthouse Castello di Brusata,Via Albisetti 2/a,Novazzano,Switzerland,6883,Bed and breakfasts,4,45.84300913,8.96483302,2,http://www.booking.com/hotel/ch/b-b-castello-di-brusata.en-gb.html,CHF
49437,182011,Hotel Christiania Gstaad,Untergstaad 26,Gstaad,Switzerland,3780,Hotels,4,46.47650104,7.28344202,2,http://www.booking.com/hotel/ch/christiania-gstaad.en-gb.html,CHF
49438,182013,Albergo Milano,Piazza Stazione,Mendrisio,Switzerland,6850,Hotels,3,45.8686577,8.97846401,2,http://www.booking.com/hotel/ch/albergo-milano.en-gb.html,CHF
49439,182014,Hotel Ambassador Zermatt,Spiss-Strasse 10,Zermatt,Switzerland,3920,Hotels,4,46.02499191,7.74954289,2,http://www.booking.com/hotel/ch/ambassador-zermatt.en-gb.html,CHF
49440,182017,Hotel Boldern,Boldernstrasse 83,Mannedorf,Switzerland,8708,Hotels,3,47.26219769,8.7019819,2,http://www.booking.com/hotel/ch/boldern-evang-tagungs-und-studienzentrum.en-gb.html,CHF
49441,182019,Hotel du Cheval-Blanc,Grand Rue 18,Saint-Blaise,Switzerland,2072,Hotels,2,47.01274401,6.98682457,2,http://www.booking.com/hotel/ch/du-cheval-blanc-saint-blaise.en-gb.html,CHF
49442,182021,Hotel Antika,Kirchstrasse 42,Zermatt,Switzerland,3920,Hotels,3,46.01905806,7.74774045,2,http://www.booking.com/hotel/ch/antika.en-gb.html,CHF
49443,1820235,Villa Del Sasso,Via Rupe 5,Sasso Marconi,Italy,40037,Hotels,4,44.38934475,11.24412205,2,http://www.booking.com/hotel/it/villa-del-sasso.en-gb.html,EUR
49444,182026,Hotel Sonne,Metzggasse 35 / Postfach 121,Zermatt,Switzerland,3920,Hotels,4,46.01896679,7.74400949,2,http://www.booking.com/hotel/ch/sonne-zermatt.en-gb.html,CHF
49445,182029,Best Western Hotel Bellevue au Lac,"Riva A. Caccia, 10",Lugano,Switzerland,6902,Hotels,4,45.99395786,8.94592613,2,http://www.booking.com/hotel/ch/best-western-bellevue-au-lac.en-gb.html,CHF
49446,18203,Metro Hotel,Vretensborgsvagen 14,Stockholm,Sweden,12630,Hotels,3,59.29926684,18.01663399,2,http://www.booking.com/hotel/se/vastberga-stockholm-hagersten-alvsjo.en-gb.html,SEK
49447,1820321,Hotel Astor,Via Reno 4,Alba Adriatica,Italy,64011,Hotels,3,42.81977454,13.9352827,2,http://www.booking.com/hotel/it/astor-alba-adriatica.en-gb.html,EUR
49448,182033,Hotel & Residence Eden,Telecabine 34,Anzere,Switzerland,1972,Hotels,3,46.29605245,7.39675462,2,http://www.booking.com/hotel/ch/restaurant-eden.en-gb.html,CHF
49449,182037,Hotel Chesa Surlej,Via dal Corvatsch 30,Silvaplana,Switzerland,7513,Hotels,3,46.457879,9.81265917,2,http://www.booking.com/hotel/ch/chesa-surlej.en-gb.html,CHF
49450,182039,Hostellerie de la Vendee,"Chemin de la Vendee, 28",Geneva,Switzerland,1213,Hotels,3,46.18960003,6.12090424,2,http://www.booking.com/hotel/ch/hostellerie-de-la-vendee.en-gb.html,CHF
49451,18204,Central Hotel,Vasagatan 38,Stockholm,Sweden,11120,Hotels,3,59.33295275,18.05742905,2,http://www.booking.com/hotel/se/central-stockholm.en-gb.html,SEK
49452,182040,Boutique Hotel Helvetia,Stauffacherquai 1,Zurich,Switzerland,8004,Hotels,3,47.37325282,8.53169516,2,http://www.booking.com/hotel/ch/helvetia.en-gb.html,CHF
49453,182041,Martinshof,Hauptstrasse 81,Zuchwil,Switzerland,4528,Hotels,3,47.20398547,7.55993351,2,http://www.booking.com/hotel/ch/martinshof.en-gb.html,CHF
49454,1820412,Albergo Casa del Romano,localita Casa del Romano 62,Fascia,Italy,16020,Hotels,2,44.59024298,9.20344317,2,http://www.booking.com/hotel/it/albergo-casa-del-romano.en-gb.html,EUR
49455,182042,Fattoria l'Amorosa,Via Moyar 11,Sementina,Switzerland,6514,Hotels,3,46.17728976,8.96569937,2,http://www.booking.com/hotel/ch/fattoria-l-amorosa.en-gb.html,CHF
49456,182043,ibis Zurich Messe Airport,Heidi Abel-Weg 5,Zurich,Switzerland,8050,Hotels,3,47.41572869,8.55878949,2,http://www.booking.com/hotel/ch/zurich-messe-airport.en-gb.html,CHF
49457,182045,ibis Winterthur City,Bruhlbergstrasse 7,Winterthur,Switzerland,8400,Hotels,2,47.49580638,8.71186852,2,http://www.booking.com/hotel/ch/winterthur-city.en-gb.html,CHF
49458,182048,ibis Locarno,Via Giuseppe Cattori 6,Locarno,Switzerland,6600,Hotels,3,46.16833249,8.79978195,2,http://www.booking.com/hotel/ch/giuseppecattori-locarno.en-gb.html,CHF
49459,182049,ibis Lausanne Centre,"20, rue du Maupas",Lausanne,Switzerland,1004,Hotels,2,46.52491806,6.62593067,2,http://www.booking.com/hotel/ch/lausanne-centre.en-gb.html,CHF
49460,18205,Best Western Arena Hotel Gothenburg,Baldersgatan 4,Gothenburg,Sweden,,Hotels,3,57.70922858,11.98579565,2,http://www.booking.com/hotel/se/hotel-arena.en-gb.html,SEK
49461,182051,ibis Geneve Aeroport,Chemin de la Violette 10,Geneva,Switzerland,1216,Hotels,2,46.22729362,6.10638142,2,http://www.booking.com/hotel/ch/geneve-aeroport.en-gb.html,CHF
49462,182052,ibis Geneve Centre Gare,"10, rue Voltaire",Geneva,Switzerland,1201,Hotels,3,46.20775584,6.13827154,2,http://www.booking.com/hotel/ch/geneve-centre-gare.en-gb.html,CHF
49463,182053,ibis Chur,Richtstrasse 19,Chur,Switzerland,7000,Hotels,2,46.84599915,9.51276809,2,http://www.booking.com/hotel/ch/chur-pyramide.en-gb.html,CHF
49464,182054,ibis Lausanne Crissier,"4, Chemin de lEsparcette",Lausanne,Switzerland,1023,Hotels,2,46.55268335,6.57230929,2,http://www.booking.com/hotel/ch/lausanne-crissier.en-gb.html,CHF
49465,1820548,Sentido Thassos Imperial,Pachis,Skala Rachoniou,Greece,64010,Hotels,4,40.7921436,24.63034719,2,https://www.booking.com/hotel/gr/sentido-thassos-imperial.en-gb.html,EUR
49466,182055,ibis Sion Est,Av. Grand-Champsec 21,Sion,Switzerland,1950,Hotels,2,46.23113633,7.38191396,2,http://www.booking.com/hotel/ch/sion-est.en-gb.html,CHF
49467,182056,ibis Basel Bahnhof,Margarethenstr. 33-35,Basel,Switzerland,4053,Hotels,2,47.54690057,7.58469298,2,http://www.booking.com/hotel/ch/basel-bahnhof.en-gb.html,CHF
49468,182057,ibis Bern Expo,Am Guisanplatz 2,Bern,Switzerland,3014,Hotels,2,46.9584236,7.46436808,2,http://www.booking.com/hotel/ch/bern-beaexpo.en-gb.html,CHF
49469,182058,ibis Luzern Kriens,Industriestrasse 13,Luzern,Switzerland,6010,Hotels,2,47.0235275,8.29882577,2,http://www.booking.com/hotel/ch/luzern-kriens.en-gb.html,CHF
49470,182059,Swiss Budget Alpenhotel,Neue Kantonsstrasse,Tasch,Switzerland,3929,Hotels,3,46.06706375,7.7758795,2,http://www.booking.com/hotel/ch/alpenhotel.en-gb.html,CHF
49471,182063,Hotel Engel,Engelgasse 4,Zofingen,Switzerland,4800,Hotels,3,47.28787906,7.94598117,2,http://www.booking.com/hotel/ch/engel.en-gb.html,CHF
49472,182064,Hotel Restaurant Burchnerhof,Ronalpstrasse 86,Burchen,Switzerland,3935,Hotels,3,46.2755056,7.82556474,2,http://www.booking.com/hotel/ch/silence-burchnerhof.en-gb.html,CHF
49473,182065,Nash Airport Hotel,chemin de la Violette 11,Geneva,Switzerland,1216,Hotels,4,46.2269021,6.10571623,2,http://www.booking.com/hotel/ch/nash-airport.en-gb.html,CHF
49474,182066,ibis Baar Zug,Bahnhofstrasse 15,Zug,Switzerland,6340,Hotels,2,47.1950547,8.5235855,2,http://www.booking.com/hotel/ch/baar-zug.en-gb.html,CHF
49475,182067,Continental Parkhotel,Via Basilea 28,Lugano,Switzerland,6900,Hotels,3,46.00263328,8.94688904,2,http://www.booking.com/hotel/ch/continental-parkhotel.en-gb.html,CHF
49476,1820672,Villa Di Poletta,1 Hristo Botev Str.,Dobrich,Bulgaria,9300,Hotels,2,43.572054,27.8327979,2,http://www.booking.com/hotel/bg/villa-di-poletta.en-gb.html,BGN
49477,182068,Hotel Steinbock Pontresina,Via Maistra 219,Pontresina,Switzerland,7504,Hotels,3,46.48691219,9.90799963,2,http://www.booking.com/hotel/ch/steinbock-pontresina.en-gb.html,CHF
49478,1820690,Hotel Helga,"Via dei Calamari, 7",Caorle,Italy,30021,Hotels,2,45.599517,12.8824228,2,http://www.booking.com/hotel/it/helga.en-gb.html,EUR
49479,182071,Hotel Regina,Dorfstrasse,Wengen,Switzerland,3823,Hotels,4,46.60475316,7.92307377,2,http://www.booking.com/hotel/ch/regina-wengen.en-gb.html,CHF
49480,182075,Ski-In/Ski-Out Hotel Sport,Talstrasse 155,Saas-Almagell,Switzerland,3905,Hotels,3,46.09160621,7.9575938,2,http://www.booking.com/hotel/ch/ski-in-ski-out-hotel-sport.en-gb.html,CHF
49481,182077,Vital-Hotel Samnaunerhof Superior,Dorfstrasse 48,Samnaun,Switzerland,7563,Hotels,3,46.94256065,10.35805285,2,http://www.booking.com/hotel/ch/vital-samnaunerhof-s.en-gb.html,CHF
49482,182080,Hotel La Val Bergspa Brigels,Palius 804,Brigels,Switzerland,7165,Hotels,4,46.76976268,9.05787885,2,http://www.booking.com/hotel/ch/la-val.en-gb.html,CHF
49483,182084,BEST WESTERN Hotel Butterfly,Bodmenstrasse 21,Zermatt,Switzerland,3920,Hotels,3,46.02328222,7.7466166,2,http://www.booking.com/hotel/ch/butterfly.en-gb.html,CHF
49484,182085,Hotel Lido,Rue de Chantepoulet 8,Geneva,Switzerland,1201,Hotels,2,46.20833776,6.14356976,2,http://www.booking.com/hotel/ch/lido-geneve.en-gb.html,CHF
49485,182087,Berghotel Randolins,via Curtins 2,St. Moritz,Switzerland,7500,Hotels,3,46.48519284,9.81181562,2,http://www.booking.com/hotel/ch/randolins.en-gb.html,CHF
49486,182089,Hotel Hohe Promenade,Hohe Promenade,Arosa,Switzerland,7050,Hotels,3,46.77863381,9.67604488,2,http://www.booking.com/hotel/ch/hohe-promenade.en-gb.html,CHF
49487,18209,Clarion Hotel Stockholm,Ringvagen 98,Stockholm,Sweden,10460,Hotels,4,59.30731666,18.07478026,2,http://www.booking.com/hotel/se/clarion-stockholm.en-gb.html,SEK
49488,182091,Hotel Du Quai,"4, rue du Quai",Villeneuve,Switzerland,1844,Inns,3,46.39799409,6.92475691,2,http://www.booking.com/hotel/ch/du-quai.en-gb.html,CHF
49489,182092,Hostellerie Le Petit Manoir,Avenue Ignace-Paderewski 8,Morges,Switzerland,1110,Hotels,4,46.50741101,6.49256319,2,http://www.booking.com/hotel/ch/hostellerie-le-petit-manoir.en-gb.html,CHF
49490,182093,Hotel Buel,Hofstrasse 1,Sankt Antonien,Switzerland,7246,Hotels,3,46.97403386,9.82851505,2,http://www.booking.com/hotel/ch/buel.en-gb.html,CHF
49491,182095,Hotel des Alpes,Promenada 45,Flims,Switzerland,7018,Hotels,3,46.82621746,9.2885676,2,http://www.booking.com/hotel/ch/hotel-des-alpes.en-gb.html,CHF
49492,182097,Hotel Helvetia,Bahnhofstrasse 72,Zermatt,Switzerland,3920,Hotels,2,46.02052761,7.74634033,2,http://www.booking.com/hotel/ch/helvetia-zermatt.en-gb.html,CHF
49493,182098,Hotel Post Sils Maria,Via Runchet 4,Sils Maria,Switzerland,7514,Hotels,4,46.42974247,9.76527393,2,http://www.booking.com/hotel/ch/post-sils-maria-ag.en-gb.html,CHF
49494,18210,Quality Hotel Nacka,Varmdovagen 84,Stockholm,Sweden,12008,Hotels,4,59.30677587,18.1184721,2,http://www.booking.com/hotel/se/quality-nacka.en-gb.html,SEK
49495,182100,Wellnesshotel Rovanada Superior,Im Boda 512,Vals,Switzerland,7132,Hotels,3,46.62298595,9.18425381,2,http://www.booking.com/hotel/ch/rovanada.en-gb.html,CHF
49496,1821018,Hotel Acquario,Viale San Salvador 42,Rimini,Italy,47922,Hotels,3,44.10442487,12.51592419,2,http://www.booking.com/hotel/it/acquario-torre-pedrera.en-gb.html,EUR
49497,182103,T3 Hotel Surpunt,Via Surpunt 9a,Flims,Switzerland,7018,Hotels,3,46.83233384,9.29103255,2,http://www.booking.com/hotel/ch/surpunt.en-gb.html,CHF
49498,182108,Hotel Sunnehus,Sonneggstrasse 17,Zurich,Switzerland,8006,Hotels,3,47.37907057,8.54705885,2,http://www.booking.com/hotel/ch/sunnehus.en-gb.html,CHF
49499,182112,Hotel Albatros,Steinmattstrasse 93,Zermatt,Switzerland,3920,Hotels,4,46.01678567,7.74834126,2,http://www.booking.com/hotel/ch/albatros.en-gb.html,CHF
49500,182113,Hotel Rheinfelderhof,Hammerstrasse 61,Basel,Switzerland,4058,Hotels,2,47.56228265,7.59689637,2,http://www.booking.com/hotel/ch/rheinfelderhof.en-gb.html,CHF
49501,1821138,Hotel MaRailiS Mangalia,Libertatii 36,Mangalia,Romania,905500,Hotels,4,43.81085003,28.57772613,2,http://www.booking.com/hotel/ro/marailis-mangalia.en-gb.html,RON
49502,182114,Hotel Zodiaque,Route des Audannes,Anzere,Switzerland,1972,Hotels,3,46.29737749,7.39984989,2,http://www.booking.com/hotel/ch/zodiaque.en-gb.html,CHF
49503,182119,Domaine de Chateauvieux,Chemin de Chateauvieux 16,Peney-Dessus,Switzerland,1242,Hotels,4,46.20153254,6.03862345,2,http://www.booking.com/hotel/ch/domaine-de-chateauvieux.en-gb.html,CHF
49504,18212,Best Western Hotel Karlaplan,Skeppargatan 82,Stockholm,Sweden,11459,Hotels,4,59.34046118,18.08829792,2,http://www.booking.com/hotel/se/best-western-hotel-karlaplan.en-gb.html,SEK
49505,182122,Hotel des Vignes,Rue du Pont 9,Sion,Switzerland,1958,Hotels,4,46.25362127,7.41586804,2,http://www.booking.com/hotel/ch/des-vignes.en-gb.html,CHF
49506,182124,Firefly Luxury Suites,Schluhmattstrasse 55,Zermatt,Switzerland,3920,Hotels,4,46.01707438,7.74575293,2,http://www.booking.com/hotel/ch/firefly.en-gb.html,CHF
49507,182126,Hotel Garni Jagerhof,Obere Gasse 16,Saas-Fee,Switzerland,3906,Hotels,3,46.10680697,7.92222887,2,http://www.booking.com/hotel/ch/jagerhof.en-gb.html,CHF
49508,182127,Domaine de L'Arbrelle,523 Rue de la Berthellerie,Amboise,France,37400,Hotels,3,47.38924001,1.01397961,2,http://www.booking.com/hotel/fr/logis-domaine-de-l-arbrelle.en-gb.html,EUR
49509,182128,Manoir de Kerhuel de Quimper,Route de Quimper,Ploneour-Lanvern,France,29720,Hotels,4,47.93235129,-4.21875805,2,http://www.booking.com/hotel/fr/logis-manoir-de-kerhuel.en-gb.html,EUR
49510,18213,Clarion Collection Hotel Tapto,Jungfrugatan 57,Stockholm,Sweden,11531,Hotels,4,59.34356584,18.0864948,2,http://www.booking.com/hotel/se/clarion-collection-tapto.en-gb.html,SEK
49511,182131,Schweizerhof Swiss Quality Hotel,Via dal Bagn 54,St. Moritz,Switzerland,7500,Hotels,4,46.496989,9.83794034,2,http://www.booking.com/hotel/ch/schweizerhof-st-moritz.en-gb.html,CHF
49512,182132,Seehof Hotel Du Lac,Gotthardstrasse 4,Weggis,Switzerland,6353,Hotels,3,47.03226681,8.43591213,2,http://www.booking.com/hotel/ch/seehof-du-lac.en-gb.html,CHF
49513,1821324,Hotel Tritone,"Piazza A. De Gasperi, 1",Caorle,Italy,30021,Hotels,3,45.59519609,12.8774668,2,http://www.booking.com/hotel/it/tritone-caorle.en-gb.html,EUR
49514,182137,ibis Styles Le Mans Sud Mulsanne,Rue Des Pins,Mulsanne,France,72230,Hotels,3,47.91239424,0.24521828,2,http://www.booking.com/hotel/fr/ibis-styles-le-mans-sud-mulsanne.en-gb.html,EUR
49515,182138,Logis Hotel L'Europe,"11, place du Barry",Marvejols,France,48100,Hotels,3,44.55274353,3.29333961,2,http://www.booking.com/hotel/fr/logis-l-europe-marjevols.en-gb.html,EUR
49516,18214,Quality Airport Hotel Arlanda,Cederstroms Slinga,Arlanda,Sweden,,Hotels,3,59.60750107,17.89848268,2,http://www.booking.com/hotel/se/quality-airport-arlanda.en-gb.html,SEK
49517,182143,Logis Auberge Du Cheval Blanc,"9, Rue De La Madeleine",Chateaugiron,France,35410,Hotels,2,48.04807878,-1.50369465,2,http://www.booking.com/hotel/fr/logis-auberge-du-cheval-blanc.en-gb.html,EUR
49518,182144,Hotel Berlioz Basel Airport,Rue Henner,Saint-Louis,France,68300,Hotels,3,47.59160153,7.55777568,2,http://www.booking.com/hotel/fr/logis-berlioz.en-gb.html,EUR
49519,1821471,El Rincon del Cuco,Calle La Cuesta No1,Tejedo de Ancares,Spain,24433,Hotels,2,42.84094513,-6.76147342,2,http://www.booking.com/hotel/es/el-rincon-del-cuco.en-gb.html,EUR
49520,1821486,Hotel Giardino,viale martiri della liberta 114,Albenga,Italy,17031,Hotels,2,44.04681487,8.22056006,2,http://www.booking.com/hotel/it/giardino-albenga.en-gb.html,EUR
49521,18215,Scandic Skarholmen,Oxholmsgrand 2,Stockholm,Sweden,12724,Hotels,4,59.27322161,17.90845513,2,http://www.booking.com/hotel/se/prince-philip.en-gb.html,SEK
49522,182154,AC Hotel Atocha,"Delicias, 42",Madrid,Spain,28045,Hotels,4,40.403926,-3.690205,5,https://www.agoda.com/en-gb/ac-hotel-atocha_2/hotel/madrid-es.html,EUR
49523,1821556,Hotel Zur-Borke,Oberhofstr. 1,Neuenrade,Germany,58809,Hotels,3,51.27975778,7.83853947,2,http://www.booking.com/hotel/de/zur-borke.en-gb.html,EUR
49524,18216,Quality Hotel Ekoxen,Klostergatan 68,Linkoping,Sweden,,Hotels,4,58.40566054,15.62427923,2,http://www.booking.com/hotel/se/quality-ekoxen.en-gb.html,SEK
49525,18217,Clarion Collection Hotel Bolinder Munktell,Munktellstorget,Eskilstuna,Sweden,,Hotels,4,59.37621595,16.51176855,2,http://www.booking.com/hotel/se/clarion-collection-bolinder-munktell.en-gb.html,SEK
49526,182176,Kulinarium an der Glems,Mahdentalstrasse 111,Stuttgart,Germany,70569,Hotels,3,48.75736996,9.06877935,2,http://www.booking.com/hotel/de/kulinarium-an-der-glems.en-gb.html,EUR
49527,182176,AC Hotel Carlton Madrid,Paseo de la Delicias 26,Madrid,Spain,28045,Hotels,4,40.405159,-3.693468,5,https://www.agoda.com/en-gb/ac-hotel-carlton-madrid_4/hotel/madrid-es.html,EUR
49528,182177,Hotel Restaurant Le Plaisance,17 place de leurope,Maurs,France,15600,Hotels,3,44.71245452,2.19793886,2,http://www.booking.com/hotel/fr/le-plaisance.en-gb.html,EUR
49529,18218,Clarion Collection Hotel Packhuset,Skeppsbrogatan 26,Kalmar,Sweden,,Hotels,4,56.66122586,16.36641115,2,http://www.booking.com/hotel/se/clarion-collection-packhuset.en-gb.html,SEK
49530,182184,allgau resort,Sebastian-Kneipp-Allee 7,Bad Gronenbach,Germany,87730,Hotels,4,47.87166178,10.22365272,2,http://www.booking.com/hotel/de/allgauer-tor.en-gb.html,EUR
49531,182186,Hotel St Sernin,2 Rue St Bernard,Toulouse,France,31000,Hotels,3,43.60870798,1.44321084,2,http://www.booking.com/hotel/fr/st-sernin.en-gb.html,EUR
49532,182190,Hotel Am Quellberg,Holunderweg 3-9,Recklinghausen,Germany,45665,Hotels,3,51.60378525,7.22761989,2,http://www.booking.com/hotel/de/sporthotel-quellberg-park.en-gb.html,EUR
49533,182199,Hotel Quickborn & Gastehaus Hesse,Auf dem Halenberg 6,Quickborn,Germany,25451,Hotels,3,53.74195838,9.94360596,2,http://www.booking.com/hotel/de/quickborn.en-gb.html,EUR
49534,18220,Quality Hotel Park Sodertalje City,Saltsjotorget,Sodertalje,Sweden,,Hotels,4,59.19346626,17.62793899,2,http://www.booking.com/hotel/se/quality-park.en-gb.html,SEK
49535,182207,Hotel Antonios,Main Street,Archea Olimpia,Greece,27065,Hotels,4,37.64670944,21.62170029,5,https://www.agoda.com/en-gb/hotel-antonios/hotel/archea-olimpia-gr.html,EUR
49536,18221,Quality Hotel Panorama,Eklandagatan 51-53,Gothenburg,Sweden,41261,Hotels,4,57.68941647,11.98767856,2,http://www.booking.com/hotel/se/quality-panorama.en-gb.html,SEK
49537,182219,Logis Relais de Vincey,"33, Rue de Lorraine",Vincey,France,88450,Hotels,3,48.34908716,6.32062018,2,http://www.booking.com/hotel/fr/logis-relais-de-vincey.en-gb.html,EUR
49538,182219,Hotel Adria,Franje Tudjmana 969,Kastela,Croatia,21217,Hotels,3,43.5449791,16.31489944,5,https://www.agoda.com/en-gb/hotel-adria/hotel/kastela-hr.html,EUR
49539,182225,Hotel Flora,Zuckerstrasse 43,Herzlake,Germany,49770,Hotels,3,52.68018088,7.60139108,2,http://www.booking.com/hotel/de/flora-herzlake.en-gb.html,EUR
49540,18223,Clarion Collection Hotel Odin,Odinsgatan 6,Gothenburg,Sweden,41103,Hotels,4,57.70900935,11.97951123,2,http://www.booking.com/hotel/se/clarion-collection-odin.en-gb.html,SEK
49541,1822340,La Tour Carree - Grasse Sud,11 Chemin des Chevrefeuilles,Peymeinade,France,6530,Hotels,3,43.64572312,6.87045836,2,http://www.booking.com/hotel/fr/la-tour-carree.en-gb.html,EUR
49542,1822350,Hotel Cliff,Viale Toscanelli 96,Rimini,Italy,47921,Hotels,3,44.08012805,12.55023733,2,http://www.booking.com/hotel/it/cliff-rimini.en-gb.html,EUR
49543,182236,L'Auberge Basque-Relais & Chateaux,Vieille Route de Saint Jean de Luz,Saint-Pee-sur-Nivelle,France,64310,Hotels,4,43.36762746,-1.58449084,2,http://www.booking.com/hotel/fr/auberge-basque.en-gb.html,EUR
49544,182239,Hotel Pension Marie-Luise,Sebastian-Kneipp-Strasse 3,Bad Bevensen,Germany,29549,Hotels,3,53.08622606,10.58543175,2,http://www.booking.com/hotel/de/pension-marie-luise.en-gb.html,EUR
49545,18224,Comfort Hotel Malmo,Carlsgatan 10 C,Malmo,Sweden,,Hotels,3,55.61078392,13.00139934,2,http://www.booking.com/hotel/se/comfort-malmo.en-gb.html,SEK
49546,1822402,Hotel Brinje,Rogla 1,Zrece,Slovenia,3214,Hotels,3,46.45202004,15.33351566,2,https://www.booking.com/hotel/si/brinje.en-gb.html,EUR
49547,182241,Le Sherpa Val Thorens Hotels-Chalets de Tradition,Rue De Gebroulaz,Val Thorens,France,73440,Hotels,3,45.29795628,6.58541054,2,http://www.booking.com/hotel/fr/le-sherpa.en-gb.html,EUR
49548,182243,Hotel Citymaxx,Dierkower Damm 50 (Ecke Petridamm),Rostock,Germany,18146,Hotels,2,54.09281755,12.15751737,2,http://www.booking.com/hotel/de/citymaxx.en-gb.html,EUR
49549,182244,Hotel Val De Saone Lyon Caluire Rillieux,1 Allee Paul Delorme,Sathonay-Camp,France,69580,Hotels,2,45.81950593,4.86864924,2,http://www.booking.com/hotel/fr/du-val-de-saone.en-gb.html,EUR
49550,1822446,Gornergrat Dorf Hotel,Bahnhofstrasse 1,Zermatt,Switzerland,3920,Hotels,3,46.02339498,7.74796997,2,http://www.booking.com/hotel/ch/gornergrat-dorf.en-gb.html,CHF
49551,182245,Les Glaciers,Grande Rue,Samoens,France,74340,Hotels,3,46.08412239,6.72422826,2,http://www.booking.com/hotel/fr/les-glaciers-samoens.en-gb.html,EUR
49552,182247,havenhostel Bremerhaven,Burgermeister-Smidt-Str. 209,Bremerhaven,Germany,27568,Hotels,2,53.56016061,8.56620312,2,http://www.booking.com/hotel/de/havenhostel-bremerhaven.en-gb.html,EUR
49553,182248,Hotel Chalet Saint-Georges,"159, Rue Monseigneur Conseil",Megeve,France,74120,Hotels,4,45.85526139,6.61711156,2,http://www.booking.com/hotel/fr/chalet-saint-georges.en-gb.html,EUR
49554,1822491,La Meiro,Via dei Pinet 1,Castelmagno,Italy,12020,Hotels,4,44.39831215,7.17328269,2,http://www.booking.com/hotel/it/la-meiro.en-gb.html,EUR
49555,18225,Clarion Collection Hotel Temperance,Engelbrektsgatan 16,Malmo,Sweden,21133,Hotels,4,55.60396002,12.99835771,2,http://www.booking.com/hotel/se/clarion-collection-malmo.en-gb.html,SEK
49556,182252,Hotel New Solarium & Spa,Quartier Jardin Alpin,Courchevel,France,73120,Hotels,3,45.41180076,6.63387939,2,http://www.booking.com/hotel/fr/new-solarium.en-gb.html,EUR
49557,1822553,Carynska Resort & SPA,Dwernik 15,Lutowiska,Poland,,Hotels,3,49.2156589,22.628877,2,http://www.booking.com/hotel/pl/pensjonat-carynska-dwernik.en-gb.html,PLN
49558,1822651,Jenny Hotel,Agios Sostis,Laganas,Greece,29092,Hotels,3,37.71123289,20.85359506,2,http://www.booking.com/hotel/gr/jenny.en-gb.html,EUR
49559,182266,Anseli Hotel,"Kremasti, Rhodes",Rhodes,Greece,85104,Hotels,2,36.41255951,28.11676025,5,https://www.agoda.com/en-gb/anseli-hotel/hotel/rhodes-gr.html,EUR
49560,1822695,Hotel Saint Germain,"Str. Gradinii Publice, Nr. 1",Braila,Romania,810022,Hotels,4,45.27252009,27.97876171,2,http://www.booking.com/hotel/ro/saint-germain.en-gb.html,RON
49561,182272,ibis budget La Roche Sur Yon Vendespace,180 Rue Du Clair Bocage,Mouilleron-le-Captif,France,85000,Hotels,2,46.71126612,-1.42955303,2,http://www.booking.com/hotel/fr/etap-la-roche-sur-yon.en-gb.html,EUR
49562,182276,Le Coquelicot,24 Rue Du Pont Daspach,Burnhaupt-le-Haut,France,68520,Hotels,3,47.74156724,7.14888096,2,http://www.booking.com/hotel/fr/le-coquelicot.en-gb.html,EUR
49563,182277,Hotel Le Grand Tetras,"25, Sentier De La Salle",Morzine,France,74110,Hotels,2,46.18048226,6.70964777,2,http://www.booking.com/hotel/fr/le-grand-tetras-morzine.en-gb.html,EUR
49564,18228,Hotel Mortensen; Sure Hotel Collection by Best Western,Baltzargatan 45,Malmo,Sweden,21136,Hotels,3,55.60465095,13.00164878,2,http://www.booking.com/hotel/se/hotel-mortensen.en-gb.html,SEK
49565,1822806,Hotel Hafen Flensburg,Schiffbrucke 33,Flensburg,Germany,24939,Hotels,4,54.79241502,9.43331797,2,http://www.booking.com/hotel/de/hotel-hafen-flensburg.en-gb.html,EUR
49566,182283,ibis La Roche Sur Yon Vendespace,160 Rue Du Clair Bocage,Mouilleron-le-Captif,France,85000,Hotels,3,46.71052311,-1.43037915,2,http://www.booking.com/hotel/fr/ibis-la-roche-sur-yon.en-gb.html,EUR
49567,182285,Hotel Altera Pars,Thieboldsgasse 133 - 135,Cologne,Germany,50676,Hotels,3,50.9351035,6.94766566,2,http://www.booking.com/hotel/de/altera-pars.en-gb.html,EUR
49568,182288,Hotel Steffani,Via Traunter Plazzas 6,St. Moritz,Switzerland,7500,Hotels,4,46.497506,9.83755209,2,http://www.booking.com/hotel/ch/steffani.en-gb.html,CHF
49569,182289,Logis Hotel Restaurant Family & Spa,4 Quai de la Barriere,Meyrueis,France,48150,Hotels,3,44.17771865,3.42869818,2,http://www.booking.com/hotel/fr/logis-family.en-gb.html,EUR
49570,18229,Hotel President,Vattengranden 11,Norrkoping,Sweden,,Hotels,4,58.59390398,16.18147194,2,http://www.booking.com/hotel/se/president-norrkoping.en-gb.html,SEK
49571,182290,Hotel Tellsplatte,Axenstrasse,Sisikon,Switzerland,6452,Hotels,3,46.93253374,8.61368626,2,http://www.booking.com/hotel/ch/tellsplatte.en-gb.html,CHF
49572,1822939,Mobile Homes Seashell Jezera,Jezera Lovisca Bb,Jezera,Croatia,22242,Campsites,3,43.793646,15.62888722,2,http://www.booking.com/hotel/hr/mobile-homes-seashell.en-gb.html,EUR
49573,18231,Quality Hotel Globe,Arenaslingan 7,Stockholm,Sweden,12126,Hotels,4,59.29273685,18.08483988,2,http://www.booking.com/hotel/se/quality-globe.en-gb.html,SEK
49574,182312,Hotel Zur Wartburg,Monchstr.4,Rheda-Wiedenbruck,Germany,33378,Hotels,3,51.83757611,8.31393719,2,http://www.booking.com/hotel/de/zur-wartburg.en-gb.html,EUR
49575,182318,Ariston Hotel,Diligianni 50 & N. Metaxa 35 Station Larissis,Athens,Greece,10439,Hotels,3,37.99090576,23.72065926,5,https://www.agoda.com/ariston-hotel/hotel/athens-gr.html,EUR
49576,182319,Hotel Du Lac,Via Ramogna 3,Locarno,Switzerland,6600,Hotels,3,46.17043241,8.79918784,2,http://www.booking.com/hotel/ch/garni-du-lac.en-gb.html,CHF
49577,18232,Hotel Poseidon,Storgatan 33,Gothenburg,Sweden,,Hotels,3,57.70013869,11.96971312,2,http://www.booking.com/hotel/se/poseidon.en-gb.html,SEK
49578,182321,L'Absinthe Hotel,1 Rue De La Ville,Honfleur,France,14600,Hotels,3,49.41990131,0.23508221,2,http://www.booking.com/hotel/fr/absinthe.en-gb.html,EUR
49579,182323,Hotel Theophano,Markt 13-14,Quedlinburg,Germany,6484,Hotels,4,51.78911624,11.14137322,2,http://www.booking.com/hotel/de/romantik-theophano.en-gb.html,EUR
49580,182324,Hotel The Originals Lens Ouest La Maison Rouge (ex Qualys-Hotel),374 Route Nationale,Noeux-les-Mines,France,62290,Hotels,3,50.46760698,2.67244577,2,http://www.booking.com/hotel/fr/la-maison-rouge.en-gb.html,EUR
49581,1823257,Hotel Eden Park,Augsdorfer Strasse 12,Velden am Worthersee,Austria,9220,Hotels,3,46.608528,14.0471031,2,http://www.booking.com/hotel/at/eden-park.en-gb.html,EUR
49582,18233,First Hotel Norrtull,St Eriksgatan 119,Stockholm,Sweden,11343,Hotels,3,59.34766301,18.04008856,2,http://www.booking.com/hotel/se/hotell-norrtull.en-gb.html,SEK
49583,1823332,Malvazia,Prievaly 327,Prievaly,Slovakia,,Hotels,4,48.5811075,17.3497246,2,http://www.booking.com/hotel/sk/malvazia.en-gb.html,EUR
49584,18234,Hotell Anno 1647,Mariagrand 3,Stockholm,Sweden,,Hotels,3,59.31922017,18.07148583,2,http://www.booking.com/hotel/se/hotell-anno-1647.en-gb.html,SEK
49585,18235,Connect Hotel Arlanda,Lindberghs gata 10,Arlanda,Sweden,,Hotels,3,59.61177937,17.88883612,2,http://www.booking.com/hotel/se/connect.en-gb.html,SEK
49586,1823577,Hotel Kringelstaden,Nygatan 5,Sodertalje,Sweden,,Hotels,2,59.19402214,17.62634433,2,http://www.booking.com/hotel/se/kringelstaden.en-gb.html,SEK
49587,182359,Auberge La Barguillere,18 Le Pont,Saint-Pierre-de-Riviere,France,9000,Hotels,2,42.9609334,1.55871212,2,http://www.booking.com/hotel/fr/la-barguillere.en-gb.html,EUR
49588,18236,Hotell Morby - Danderyd Hospital,Kevinge Strand 1B,Danderyd,Sweden,18257,Hotels,3,59.39381702,18.03656816,2,http://www.booking.com/hotel/se/hotell-morby.en-gb.html,SEK
49589,182360,Hotel La Meije,75 Av De La Muzelle,Les Deux Alpes,France,38860,Hotels,2,45.00996232,6.12307549,2,http://www.booking.com/hotel/fr/la-meije.en-gb.html,EUR
49591,182363,ibis Styles Lyon Meyzieu Stadium,2 Bis Rue Du 24 Avril 1915,Meyzieu,France,69330,Hotels,3,45.77102636,4.98727061,2,http://www.booking.com/hotel/fr/grand-est.en-gb.html,EUR
49592,182368,Robinson Club Arosa - Adults Only,Tannenweg,Arosa,Switzerland,7050,Hotels,4,46.77618857,9.67673689,2,http://www.booking.com/hotel/ch/robinson-club-arosa.en-gb.html,CHF
49593,182369,Hotel du Lion d'Or Louvre,5 Rue De La Sourdiere,Paris,France,75001,Hotels,3,48.86539672,2.3318354,2,http://www.booking.com/hotel/fr/du-lion-d-or.en-gb.html,EUR
49594,182375,Hotel Reifenstein,Am Sonder,Kleinbartloff,Germany,37355,Hotels,4,51.3474766,10.35354137,2,http://www.booking.com/hotel/de/reifenstein.en-gb.html,EUR
49595,182376,Kastel Wellness Hotel - Thalasso et Spa,Corniche De La Plage,Benodet,France,29950,Hotels,3,47.87169057,-4.103643,2,http://www.booking.com/hotel/fr/kastel.en-gb.html,EUR
49596,18238,Clarion Grand Hotel,Stortorget 8-12,Helsingborg,Sweden,,Hotels,4,56.04644046,12.69445807,2,http://www.booking.com/hotel/se/clarion-grand.en-gb.html,SEK
49597,1823855,Miramonti,via 5 martiri 6,Calizzano,Italy,17057,Hotels,3,44.23632422,8.11534789,2,http://www.booking.com/hotel/it/miramonti-calizzano.en-gb.html,EUR
49598,182387,Belmare Hotel,Lardos,Rhodes,Greece,85109,Hotels,3,36.09403992,28.01652145,5,https://www.agoda.com/en-gb/belmare-hotel/hotel/rhodes-gr.html,EUR
49599,182388,Hotel The Originals Le Mans Chantecler,50 Rue De La Pelouse,Le Mans,France,72000,Hotels,3,47.99840391,0.19295856,2,http://www.booking.com/hotel/fr/chantecler.en-gb.html,EUR
49600,182393,Benvenuti Hotel,112 Cavour Street,Florence,Italy,50129,Hotels,2,43.78288419,11.26227379,5,https://www.agoda.com/en-gb/benvenuti-hotel/hotel/florence-it.html,EUR
49601,182395,Hotel-Restaurant Goldenstedt,Urselstr. 18,Delmenhorst,Germany,27751,Hotels,3,53.0342313,8.65249783,2,http://www.booking.com/hotel/de/restaurant-goldenstedt.en-gb.html,EUR
49602,18241,Hotel & Ristorante Bellora,Kungsportsavenyn 6,Gothenburg,Sweden,,Hotels,4,57.70154467,11.97387591,2,http://www.booking.com/hotel/se/hotel-bellora.en-gb.html,SEK
49603,1824105,Hotel Central Sala,Nam.Sv.Trojice 3,Sala,Slovakia,,Hotels,3,48.15192627,17.87525565,2,http://www.booking.com/hotel/sk/central-sala.en-gb.html,EUR
49604,182418,Blue Bay Beach Hotel,Ialysou Ave.,Rhodes,Greece,85101,Hotels,4,36.42321777,28.15703583,5,https://www.agoda.com/en-gb/blue-bay-beach-hotel/hotel/rhodes-gr.html,EUR
49605,18242,Clarion Hotel Gillet,Dragarbrunnsgatan 23,Uppsala,Sweden,,Hotels,4,59.86062813,17.63768211,2,http://www.booking.com/hotel/se/clarion-gillet.en-gb.html,SEK
49606,182427,Altstadt-Hotel,Porta Nigra Platz 6,Trier,Germany,54292,Hotels,3,49.7591285,6.64503872,2,http://www.booking.com/hotel/de/altstadt-trier.en-gb.html,EUR
49607,182434,Parkhotel Schmid,Augsburger Strasse 28,Adelsried,Germany,86477,Hotels,4,48.42400693,10.71946442,2,http://www.booking.com/hotel/de/parkhotel-schmid.en-gb.html,EUR
49608,182438,Hotel Schlehdorn,Am Sommerberg 1,Feldberg,Germany,79868,Hotels,4,47.85698,8.1096758,2,http://www.booking.com/hotel/de/schlehdorn.en-gb.html,EUR
49609,182442,Le Relais Du Mont Blanc,19 Route de Bellegarde,Magland,France,74300,Hotels,3,46.00937926,6.62760973,2,http://www.booking.com/hotel/fr/le-relais-du-mont-blanc.en-gb.html,EUR
49610,182444,Hotel- und Ferienanlage Haffhus,Dorfstrasse 35,Ueckermunde,Germany,17373,Holiday parks,3,53.73689295,14.12122965,2,http://www.booking.com/hotel/de/und-ferienanlage-haffhus.en-gb.html,EUR
49611,1824497,Bed and Breakfast Kreft,Strocja vas 42 Sobe Kreft,Ljutomer,Slovenia,9240,Bed and breakfasts,3,46.5097589,16.22855532,2,http://www.booking.com/hotel/si/bed-and-breakfast-kreft.en-gb.html,EUR
49612,18245,Best Western Gustaf Wasa Hotel,Tunagatan 1,Borlange,Sweden,,Hotels,4,60.48200437,15.42879045,2,http://www.booking.com/hotel/se/gustaf-wasa.en-gb.html,SEK
49613,1824517,Arkanum Hotel,Vilma utca 38.,Balatonmariafurdo,Hungary,8647,Hotels,3,46.70602087,17.36592776,2,http://www.booking.com/hotel/hu/arkanum-medhotel.en-gb.html,EUR
49614,182453,Hotel Buenos Aires,Via Don Minzoni 15,Montecatini Terme,Italy,51016,Hotels,3,43.88235092,10.77105045,5,https://www.agoda.com/en-gb/hotel-buenos-aires/hotel/montecatini-terme-it.html,EUR
49615,18246,Scandic No. 25,Burggrevegatan 25,Gothenburg,Sweden,,Hotels,4,57.70968423,11.98113129,2,http://www.booking.com/hotel/se/scandic-no-25.en-gb.html,SEK
49616,1824656,Relais Manfredi,Via Castello 5,Castellammare di Stabia,Italy,80053,Hotels,3,40.68843121,14.47122832,2,http://www.booking.com/hotel/it/relais-manfredi.en-gb.html,EUR
49617,18247,Connect Hotel Stockholm,Gotalandsvagen 216,Stockholm,Sweden,,Hotels,3,59.28088436,18.01372647,2,http://www.booking.com/hotel/se/connect-stockholm.en-gb.html,SEK
49618,182479,Carina Hotel,56 Griva str.,Rhodes,Greece,85100,Hotels,2,36.45233154,28.21928024,5,https://www.agoda.com/en-gb/carina-hotel/hotel/rhodes-gr.html,EUR
49619,18248,Clarion Collection Hotel Majoren,Tradgardsgatan 5,Skovde,Sweden,,Hotels,4,58.39069183,13.85024741,2,http://www.booking.com/hotel/se/clarion-collection-majoren.en-gb.html,SEK
49620,18249,Good Morning+ Hagersten,Vastertorpsvagen 131,Stockholm,Sweden,12944,Hotels,4,59.28975768,17.95387566,2,http://www.booking.com/hotel/se/stockholm-south.en-gb.html,SEK
49621,18250,Best Western Hotel Royal,Norra Vallgatan 94,Malmo,Sweden,,Hotels,4,55.60658655,12.99513504,2,http://www.booking.com/hotel/se/best-western-royal.en-gb.html,SEK
49622,182510,Belambra Club Tignes - Le Diva,Val Claret,Tignes,France,73320,Hotels,3,45.454223,6.89863086,2,http://www.booking.com/hotel/fr/diva.en-gb.html,EUR
49623,182512,Hotel Wiedenhof,Kolner Strasse 38,Hilden,Germany,40723,Hotels,2,51.15785931,6.94308043,2,http://www.booking.com/hotel/de/wiedenhof.en-gb.html,EUR
49624,1825121,O en Couleur,9 rue de Beaugency,Oucques,France,41290,Hotels,3,47.82314142,1.2952559,2,http://www.booking.com/hotel/fr/restaurant-le-commerce.en-gb.html,EUR
49625,182513,Hotel Village,Steindamm 4,Hamburg,Germany,20099,Hotels,3,53.55277242,10.01077048,2,http://www.booking.com/hotel/de/village0.en-gb.html,EUR
49626,182514,Relais Vert,Rue Des Freres Deckherr Zac Le Pied Des Gouttes,Montbeliard,France,25200,Hotels,3,47.49967804,6.81720704,2,http://www.booking.com/hotel/fr/aux-relais-verts.en-gb.html,EUR
49627,182515,Belambra Clubs Hotel Arc 1600 - La Cachette,Arc Pierre Blanche,Arc 1600,France,73700,Hotels,3,45.59683401,6.79590762,2,http://www.booking.com/hotel/fr/cachette.en-gb.html,EUR
49628,182516,Belambra Clubs Hotel La Plagne - Le Terra Nova - Half Board,Plagne Centre,La Plagne,France,73210,Hotels,3,45.50568522,6.68011665,2,http://www.booking.com/hotel/fr/terra-nova.en-gb.html,EUR
49629,1825193,Casa Rural Casa Queta,"Calle La Iglesia, 19",Palomero,Spain,10660,Bed and breakfasts,3,40.24704715,-6.27598919,2,http://www.booking.com/hotel/es/casa-rural-casa-queta.en-gb.html,EUR
49630,1825204,Hotel Colonial de Santillana,Av. Le Dorat 15,Santillana del Mar,Spain,39330,Hotels,3,43.38844977,-4.10695158,2,http://www.booking.com/hotel/es/colonial-de-santillana-santillana-del-mar.en-gb.html,EUR
49631,1825285,Rosegarden,John moore road The Green,Castlebar,Ireland,,Bed and breakfasts,4,53.85325754,-9.29842472,2,http://www.booking.com/hotel/ie/rosegarden.en-gb.html,EUR
49632,1825382,Ristorante Albergo 7Bello,C.so S. Alfonso n. 46,Caposele,Italy,83040,Hotels,3,40.81668819,15.23618013,2,https://www.booking.com/hotel/it/ristorante-albergo-7bello.en-gb.html,EUR
49633,182548,Sky Design Motel,Zollstrasse 7,Kriessern,Switzerland,9451,Motels,3,47.36115846,9.60672855,2,http://www.booking.com/hotel/ch/sky-motel.en-gb.html,CHF
49634,18255,Best Western Hotel Duxiana,Bruksgatan 40,Helsingborg,Sweden,25224,Hotels,4,56.0435371,12.6974313,2,http://www.booking.com/hotel/se/best-western-duxiana.en-gb.html,SEK
49635,182550,Hotel Corrieu,Domaine Du Capcir,La Llagonne,France,66210,Hotels,3,42.52591036,2.12322056,2,http://www.booking.com/hotel/fr/corrieu.en-gb.html,EUR
49636,182551,La Pinede,Route des Iles Sanguinaires Barbicaja,Ajaccio,France,20000,Hotels,3,41.91022992,8.68806124,2,http://www.booking.com/hotel/fr/la-pinede.en-gb.html,EUR
49637,182554,Logis Hotel des Chateaux,2 Route de Villandry,Azay-le-Rideau,France,37190,Hotels,3,47.26773465,0.47138751,2,http://www.booking.com/hotel/fr/des-chateaux.en-gb.html,EUR
49638,182557,Ibis Budget Agen - Hotel Restaurant,Le Caillou,Le Passage,France,47520,Hotels,2,44.16428975,0.60081482,2,http://www.booking.com/hotel/fr/etap-agen.en-gb.html,EUR
49639,182558,Hotel Goldener Hirsch,Kaiser-Max-Str. 39,Kaufbeuren,Germany,87600,Hotels,3,47.87910997,10.61958164,2,http://www.booking.com/hotel/de/goldener-hirsch-kaufbeuren.en-gb.html,EUR
49640,182560,ibis styles La Rochelle Thalasso Chatelaillon,La Falaise,Chatelaillon-Plage,France,17340,Hotels,3,46.05907594,-1.0886389,2,http://www.booking.com/hotel/fr/sas-hpch-ibis.en-gb.html,EUR
49641,182568,Berghotel Wintersberg,Braubacher Str. / Wintersberg 1,Bad Ems,Germany,56130,Hotels,3,50.323296,7.727197,2,http://www.booking.com/hotel/de/berghotel-wintersberg.en-gb.html,EUR
49642,18257,Good Morning Karlstad City,Vastra Torggatan 20,Karlstad,Sweden,,Hotels,3,59.38245123,13.50210473,2,http://www.booking.com/hotel/se/karlstad-city.en-gb.html,SEK
49643,182570,Clio Hotel,Alykes Beach,Zakynthos Island,Greece,,Hotels,3,37.840904,20.761328,5,https://www.agoda.com/en-gb/clio-hotel/hotel/zakynthos-island-gr.html,EUR
49644,18258,Good Morning+ Malmo,Stadiongatan 21,Malmo,Sweden,,Hotels,3,55.58109799,12.99379259,2,http://www.booking.com/hotel/se/hotel-malmo.en-gb.html,SEK
49645,182581,Land-Hotel Muhlengrund,Nuhnetalstr. 114,Winterberg,Germany,59955,Hotels,3,51.15329186,8.57551575,2,http://www.booking.com/hotel/de/land-gut-muhlengrund-s.en-gb.html,EUR
49646,182588,Comfort Hotel Paris Lafayette,23 Messageries Street,Paris,France,75010,Hotels,3,48.87646867,2.348885201,5,https://www.agoda.com/comfort-hotel-paris-lafayette/hotel/paris-fr.html,EUR
49647,18259,Sturup Airport Hotel,Malmo Airport,Malmo/Sturup,Sweden,23032,Hotels,4,55.54248544,13.36102724,2,http://www.booking.com/hotel/se/sturup-airport.en-gb.html,SEK
49648,182597,Hotel Conchiglia,Via Delle Saline 82,Montecatini Terme,Italy,51016,Hotels,2,43.88373184,10.77385044,5,https://www.agoda.com/en-gb/hotel-conchiglia/hotel/montecatini-terme-it.html,EUR
49649,18260,Hotel Maria - Sweden Hotels,Mariagatan 8A,Helsingborg,Sweden,25223,Hotels,3,56.04617381,12.69579917,2,http://www.booking.com/hotel/se/maria.en-gb.html,SEK
49650,18261,First Hotel Jorgen Kock,Jorgen Kocksgatan 3,Malmo,Sweden,,Hotels,3,55.61149897,12.99992412,2,http://www.booking.com/hotel/se/first-jorgen-kock.en-gb.html,SEK
49651,182612,Hotel Garni *** Haus am Kurpark,Wenzstr. 3,Bad Steben,Germany,95138,Hotels,3,50.36396719,11.63800687,2,http://www.booking.com/hotel/de/pension-germania.en-gb.html,EUR
49652,182614,La Marine de Loire Hotel & Spa,9 Avenue de la Loire,Montsoreau,France,49730,Hotels,4,47.21687917,0.05603671,2,http://www.booking.com/hotel/fr/la-marine-de-loire-montsoreau.en-gb.html,EUR
49653,182616,Hotel Kaiserpfalz,Von-Ketteler-Str. 20,Paderborn,Germany,33106,Hotels,3,51.73392819,8.68886054,2,http://www.booking.com/hotel/de/kaiserpfalz-paderborn.en-gb.html,EUR
49654,182621,Hotel Alpin Superior,Mischistrasse 18,Saas-Fee,Switzerland,3906,Hotels,3,46.10563354,7.92732507,2,http://www.booking.com/hotel/ch/alpin.en-gb.html,CHF
49655,182630,Le Cesar,Avenue Georges Pompidou,Plan-de-Cuques,France,13380,Hotels,3,43.34209444,5.46451807,2,http://www.booking.com/hotel/fr/le-cesar.en-gb.html,EUR
49656,1826379,Albergo Ristorante Sciatori,P.za Adriano Gimorri 13 - SantAnnapelago,Pievepelago,Italy,41027,Hotels,3,44.19266967,10.5526042,2,http://www.booking.com/hotel/it/albergo-ristorante-sciatori.en-gb.html,EUR
49657,18264,Good Morning Kista,Finlandsgatan 7,Stockholm,Sweden,,Hotels,3,59.41325151,17.93097764,2,http://www.booking.com/hotel/se/hotel-stockholm-kista.en-gb.html,SEK
49658,1826471,Willa Wolnosc,Warszawska 16,Polanica-Zdroj,Poland,,Hotels,3,50.40165874,16.51294715,2,http://www.booking.com/hotel/pl/polanica.en-gb.html,PLN
49659,182657,Hotel Adler,Kirchplatz 6,Oberstaufen,Germany,87534,Hotels,4,47.5536839,10.02193183,2,http://www.booking.com/hotel/de/adler-oberstaufen1.en-gb.html,EUR
49660,182659,Hotel Delizia,Viale Zanzur 11,Rimini,Italy,,Hotels,2,44.06283433,12.58153439,5,https://www.agoda.com/en-gb/hotel-delizia/hotel/rimini-it.html,EUR
49661,18266,Best Western Plus Time Hotel,Vanadisvagen 12,Stockholm,Sweden,,Hotels,4,59.34760695,18.0493395,2,http://www.booking.com/hotel/se/best-western-time.en-gb.html,SEK
49662,18267,Best Western Plus Hotel Noble House,Per Weijersgatan 6,Malmo,Sweden,21134,Hotels,4,55.60369335,12.99958348,2,http://www.booking.com/hotel/se/noble-house.en-gb.html,SEK
49663,182670,Doisy Etoile,55 avenue des Ternes,Paris,France,75017,Hotels,4,48.87897885,2.29207367,2,http://www.booking.com/hotel/fr/doisy-etoile.en-gb.html,EUR
49664,182671,Hotel Les Theatres,98 Rue De Clery,Paris,France,75002,Hotels,4,48.86959062,2.35171527,2,http://www.booking.com/hotel/fr/les-theatres.en-gb.html,EUR
49665,182671,Diana Hotel,"Stratigou Griva Street 68, Rhodes Town",Rhodes,Greece,85100,Hotels,2,36.4522171,28.21914291,5,https://www.agoda.com/en-gb/diana-hotel/hotel/rhodes-gr.html,EUR
49776,7333799,Sjostugan,,Olstorp,Sweden,,Hotels,3,57.82720184,15.07890034,5,https://www.agoda.com/en-gb/sjostugan/hotel/olstorp-se.html,SEK
49666,182672,Dioscouri Hotel,182 Lykorgou And Atridon Street,Sparti,Greece,,Hotels,3,37.07357,22.424892,5,https://www.agoda.com/en-gb/dioscouri-hotel/hotel/sparti-gr.html,EUR
49667,182673,Comfort Hotel CDG Goussainville,1 rue Jacques Anquetil,Goussainville,France,95190,Hotels,3,49.02098845,2.45479994,2,http://www.booking.com/hotel/fr/balladins-roissy-goussainville.en-gb.html,EUR
49668,18268,Clarion Collection Hotel Fregatten,Hamnplan,Varberg,Sweden,,Hotels,4,57.10789605,12.24606514,2,http://www.booking.com/hotel/se/clarion-collection-fregatten.en-gb.html,SEK
49669,182686,Hotel Domo,19 Ingegneria Street,Perugia,Italy,6125,Hotels,4,43.1133656,12.36074996,5,https://www.agoda.com/en-gb/hotel-domo/hotel/perugia-it.html,EUR
49670,18269,Clarion Collection Hotel Post,Stora Torget,Oskarshamn,Sweden,,Hotels,4,57.26476175,16.44937098,2,http://www.booking.com/hotel/se/clarion-collection-post.en-gb.html,SEK
49671,18270,Sure Hotel by Best Western Stanga,Tullgrand 4,Linkoping,Sweden,,Hotels,3,58.41430607,15.62857836,2,http://www.booking.com/hotel/se/stanga-hotell.en-gb.html,SEK
49672,1827080,Anna Bed & Breakfast,Viale della Vittoria 12,Gabicce Mare,Italy,61011,Bed and breakfasts,2,43.96601545,12.75657668,2,http://www.booking.com/hotel/it/sayonara-gabicce-mare.en-gb.html,EUR
49673,182709,Landmark Eco Hotel,Gervinusstr. 24,Berlin,Germany,10629,Hotels,3,52.50207538,13.29719469,2,http://www.booking.com/hotel/de/five-floors.en-gb.html,EUR
49674,1827097,Hotel Il Boschetto,"Viale Adua, 467",Pistoia,Italy,51100,Hotels,3,43.9538423,10.90100974,2,http://www.booking.com/hotel/it/il-boschetto-pistoia.en-gb.html,EUR
49675,18271,Comfort Hotel Jonkoping,Klostergatan 28,Jonkoping,Sweden,,Hotels,3,57.7789097,14.15650874,2,http://www.booking.com/hotel/se/comfort-jonkoping.en-gb.html,SEK
49676,182711,Hotel Linde,Klosterplatz,Einsiedeln,Switzerland,8840,Hotels,3,47.12777189,8.74949321,2,http://www.booking.com/hotel/ch/linde.en-gb.html,CHF
49677,182712,Hotel Art Inn Dinslaken,Bahnhofsplatz 9,Dinslaken,Germany,46535,Hotels,3,51.56716547,6.73662275,2,http://www.booking.com/hotel/de/art-inn-dinslaken.en-gb.html,EUR
49678,182715,Caprice Des Neiges - Logis de France,"57, route de lEpine",Combloux,France,74920,Hotels,2,45.88856688,6.65012687,2,http://www.booking.com/hotel/fr/caprice-des-neiges.en-gb.html,EUR
49679,1827160,Hotel Villa Esedra,"Lungomare C.Colombo, 56",Bellaria-Igea Marina,Italy,47814,Hotels,3,44.14913484,12.46508683,2,https://www.booking.com/hotel/it/villa-esedra.en-gb.html,EUR
49680,1827164,Cafe du Nord-Izmir hotel,126 avenue du 8 mai 1945,Le Blanc-Mesnil,France,93150,Hotels,2,48.95047094,2.44016902,2,http://www.booking.com/hotel/fr/cafe-du-nord-izmir.en-gb.html,EUR
49681,18272,Clarion Collection Hotel Grand,Nybrogatan 13,Sundsvall,Sweden,,Hotels,4,62.38956517,17.31113121,2,http://www.booking.com/hotel/se/clarion-collection-grand.en-gb.html,SEK
49682,182727,Hotel La Villa,12 Chemin de Jacquette,Bayonne,France,64100,Hotels,3,43.48217317,-1.46832705,2,http://www.booking.com/hotel/fr/la-villa.en-gb.html,EUR
49683,18273,Clarion Collection Hotel Bilan,Karlbergsgatan 3,Karlstad,Sweden,,Hotels,4,59.37947992,13.5088639,2,http://www.booking.com/hotel/se/clarion-collection-bilan.en-gb.html,SEK
49684,18274,Clarion Collection Hotel Etage,Storagatan 32,Vasteras,Sweden,,Hotels,4,59.6098133,16.54595464,2,http://www.booking.com/hotel/se/clarion-collection-etage.en-gb.html,SEK
49685,18275,Clarion Hotel Orebro,Kungsgatan 14,Orebro,Sweden,,Hotels,4,59.27040961,15.2135548,2,http://www.booking.com/hotel/se/clarion-orebro.en-gb.html,SEK
49686,182767,Collegium Leoninum,Noeggerathstr. 34,Bonn,Germany,53111,Hotels,4,50.73508011,7.09240973,2,http://www.booking.com/hotel/de/collegium-leoninum.en-gb.html,EUR
49687,18277,Euroway Hotel,Stigs Center 2D,Gothenburg,Sweden,42246,Hotels,3,57.74780835,11.99340641,2,http://www.booking.com/hotel/se/euroway.en-gb.html,SEK
49688,182770,Hotel Residenz Stockstadt,Feuerwehrstrasse 12,Stockstadt am Main,Germany,63811,Hotels,3,49.97800956,9.06141132,2,http://www.booking.com/hotel/de/schierstein.en-gb.html,EUR
49689,18278,Brunnby Hotel,Brunnbyvagen 7,Stockholm,Sweden,,Hotels,2,59.29487622,18.03260922,2,http://www.booking.com/hotel/se/brunnby.en-gb.html,SEK
49690,182783,Victor's Seehotel Weingartner Bostalsee,Bostalstrasse 12,Bosen-Eckelhausen,Germany,66625,Hotels,4,49.56859539,7.05910206,2,http://www.booking.com/hotel/de/seehotel-weingartner-bosen.en-gb.html,EUR
49691,1827865,Villa Montesquieu,RUE MONTESQUIEU,Laudun,France,30290,Hotels,4,44.10456054,4.65874929,2,http://www.booking.com/hotel/fr/villa-montesquieu.en-gb.html,EUR
49692,1827882,Genussgasthof Fuldaquelle & Berghof Wasserkuppe,Obernhausen 4-5,Gersfeld,Germany,36129,Hotels,3,50.48036222,9.94403731,2,http://www.booking.com/hotel/de/genussgasthof-fuldaquelle.en-gb.html,EUR
49693,18280,Elite Park Avenue Hotel,Kungsportsavenyn 36-38,Gothenburg,Sweden,,Hotels,4,57.69854059,11.97813526,2,http://www.booking.com/hotel/se/elite-park-avenue.en-gb.html,SEK
49694,182818,Novum Hotel City Apart Hamburg,Steintorweg 9,Hamburg,Germany,20099,Hotels,3,53.55318472,10.00948504,2,http://www.booking.com/hotel/de/city-apartmenthotel-novum.en-gb.html,EUR
49695,18282,Elite Hotel Savoy,Norra Vallgatan 62,Malmo,Sweden,,Hotels,4,55.60769331,13.00020039,2,http://www.booking.com/hotel/se/elite-savoy.en-gb.html,SEK
49696,182822,Hotel Mont-Fort,Route de la telecabine 8,Nendaz,Switzerland,1997,Inns,3,46.1824675,7.29510427,2,http://www.booking.com/hotel/ch/mont-fort.en-gb.html,CHF
49697,182823,Meister BAR HOTEL Wunsiedler Hof,Jean - Paul - Str. 1,Wunsiedel,Germany,95632,Hotels,3,50.03835108,12.00551659,2,http://www.booking.com/hotel/de/meister-bar-wunsiedel.en-gb.html,EUR
49698,182824,Hotel Le Mozart,49 Cours Gambetta,Aix-en-Provence,France,13100,Hotels,2,43.52191762,5.45787156,2,http://www.booking.com/hotel/fr/le-mozart.en-gb.html,EUR
49699,18283,Elite Hotel Residens,Adelgatan 7,Malmo,Sweden,,Hotels,4,55.60741303,13.00129339,2,http://www.booking.com/hotel/se/elite-residens.en-gb.html,SEK
49700,18284,Elite Palace Hotel,Sankt Eriksgatan 115,Stockholm,Sweden,,Hotels,4,59.34672765,18.03986996,2,http://www.booking.com/hotel/se/elite-palace.en-gb.html,SEK
49701,182846,Hotel Hellinikon,Ouranoupoli,Chalkidiki,Greece,63075,Hotels,2,40.32585907,23.98263931,5,https://www.agoda.com/en-gb/hotel-hellinikon/hotel/chalkidiki-gr.html,EUR
49702,1828469,Chalet del Lago,Borgata Pian della Balma 10,Ceresole Reale,Italy,10080,Hotels,2,45.43209253,7.23656137,2,http://www.booking.com/hotel/it/chalet-del-lago-ceresole-reale.en-gb.html,EUR
49739,73307,Best Western Hotel am Spittelmarkt,Neue Grunstrasse 28,Berlin,Germany,10179,Hotels,3,52.51000492,13.40554118,2,http://www.booking.com/hotel/de/am-spittelmarkt.en-gb.html,EUR
49703,732854,Mullacott Park,Mullacott Park Mullacott Cross Ilfracombe North Devon,Ilfracombe,United Kingdom,,Hotels,4,51.18072891,-4.131400108,5,https://www.agoda.com/en-gb/mullacott-park/hotel/ilfracombe-gb.html,GBP
49704,7328564,Holiday house with a parking space Splitska (Brac) - 16530,,Brac Island,Croatia,21410,Hotels,3,43.37739182,16.60841942,5,https://www.agoda.com/en-gb/holiday-house-with-a-parking-space-splitska-brac-16530/hotel/brac-island-hr.html,EUR
49705,7328577,Villa Barba Pere,,Privlaka,Croatia,23233,Hotels,3,44.25262833,15.13457966,5,https://www.agoda.com/en-gb/villa-barba-pere/hotel/privlaka-hr.html,EUR
49706,732864,Castle Hotel,High Street,Kings Lynn,United Kingdom,,Hotels,3,52.60391998,0.378719985,5,https://www.agoda.com/en-gb/castle-hotel/hotel/kings-lynn-gb.html,GBP
49707,7328712,Chalet MacKinnon,,Ord,United Kingdom,,Hotels,3,57.15129852,-5.938729763,5,https://www.agoda.com/en-gb/chalet-mackinnon/hotel/ord-gb.html,GBP
49708,7328748,Freibeuterweg 7 - Dorf 6,,Lubeck,Germany,23570,Hotels,4,53.95610046,10.88609982,5,https://www.agoda.com/en-gb/freibeuterweg-7-dorf-6/hotel/lubeck-de.html,EUR
49709,7328752,Midtown Farm Bed & Breakfast,"Midtown Farm, Easton, Wigton, Cumbria",Easton,United Kingdom,,Hotels,4,54.92087936,-3.129940033,5,https://www.agoda.com/en-gb/midtown-farm-bed-breakfast/hotel/easton-gb.html,GBP
49710,7328779,Residence ATLANTICA,Residence Atlantica 23 Avenue Marcel Dassault,Rochefort,France,17300,Hotels,3,45.94549179,-0.958410025,5,https://www.agoda.com/en-gb/residence-atlantica/hotel/rochefort-fr.html,EUR
49711,73288,Hotel Pfauen,Hugstetterstr.2,Umkirch,Germany,79224,Hotels,3,48.03133592,7.76839614,2,http://www.booking.com/hotel/de/pfauen.en-gb.html,EUR
49712,7329075,Blaencwm B&B,Blaencwm Blaenffos,Blaenffos,United Kingdom,,Hotels,3,51.99942017,-4.636250019,5,https://www.agoda.com/en-gb/blaencwm-b-b/hotel/blaenffos-gb.html,GBP
49713,73291,Radisson Blu Hotel Koln,Messekreisel 3,Cologne,Germany,50679,Hotels,4,50.94373606,6.98499262,2,http://www.booking.com/hotel/de/radisson-sas-kapln.en-gb.html,EUR
49714,7329101,Red Kite Cottage,,Brecon,United Kingdom,,Hotels,4,52.08824158,-4.306089878,5,https://www.agoda.com/en-gb/red-kite-cottage/hotel/brecon-gb.html,GBP
49715,7329185,Cooil House Douglas,43 Cooil Drive,Kearney,United Kingdom,,Hotels,4,54.14987183,-4.524449825,5,https://www.agoda.com/en-gb/cooil-house-douglas/hotel/kearney-gb.html,GBP
49716,73292,Residenzia Hotel Grenadier,Rehrhoferweg 121,Munster im Heidekreis,Germany,29633,Hotels,3,52.99608517,10.11324227,2,http://www.booking.com/hotel/de/residenzia-grenadier.en-gb.html,EUR
49717,7329224,Mill Lodge B&B,41 Lurgan Road,Newcastle,United Kingdom,,Hotels,4,54.41408157,-6.17193985,5,https://www.agoda.com/en-gb/mill-lodge-b-b/hotel/newcastle-gb.html,GBP
49718,7329284,Hotel Skiathos,"Strada Dem Radulescu, Numarul 3",Venus,Romania,905504,Hotels,3,43.8447113,28.5916996,5,https://www.agoda.com/en-gb/hotel-skiathos/hotel/venus-ro.html,EUR
49719,7329358,Evina Room & Villas,Gournes,Crete Island,Greece,71500,Hotels,3,35.32616043,25.27687073,5,https://www.agoda.com/en-gb/evina-room-villas/hotel/crete-island-gr.html,EUR
49720,73294,Hotel Ostseeland,Stolteraer Weg 47,Warnemunde,Germany,18119,Hotels,3,54.17478022,12.00867623,2,http://www.booking.com/hotel/de/ferienhof-ostseeland.en-gb.html,EUR
49721,7329421,Kavos Melissa Studios,Agios Pavlos,Crete Island,Greece,74053,Hotels,2,35.1028595,24.56562996,5,https://www.agoda.com/en-gb/kavos-melissa-studios/hotel/crete-island-gr.html,EUR
49722,7329465,Maya Beach Hotel - All Inclusive,Posidonos Paraliaki Maya Beach Hotel,Crete Island,Greece,70014,Hotels,4,35.33456039,25.31263924,5,https://www.agoda.com/en-gb/maya-beach-hotel-all-inclusive/hotel/crete-island-gr.html,EUR
49723,7329494,Daidalos Rent Rooms,"Agios Pavlos Rethymno, Greece Agios Pavlos - Saxtouria - Rethymno",Crete Island,Greece,74053,Hotels,3,35.10282898,24.56554031,5,https://www.agoda.com/en-gb/daidalos-rent-rooms/hotel/crete-island-gr.html,EUR
49724,73295,Naturpark Hotel Weilquelle,Limesstrasse 16,Oberreifenberg,Germany,61389,Hotels,4,50.2358969,8.44260693,2,http://www.booking.com/hotel/de/naturparkhotel-weilquelle.en-gb.html,EUR
49725,7329525,Four-Bedroom Holiday Home in Kato Gouves Heraklio,,Crete Island,Greece,70014,Hotels,4,35.32949829,25.32900047,5,https://www.agoda.com/en-gb/four-bedroom-holiday-home-in-kato-gouves-heraklio/hotel/crete-island-gr.html,EUR
49726,7329533,Villa Buena Vista,,Crete Island,Greece,73100,Hotels,4,35.38724136,24.1352005,5,https://www.agoda.com/en-gb/villa-buena-vista/hotel/crete-island-gr.html,EUR
49727,7329534,DOM Boutique Hotel,Almirou 14,Crete Island,Greece,71202,Hotels,4,35.34104156,25.13339996,5,https://www.agoda.com/en-gb/dom-boutique-hotel/hotel/crete-island-gr.html,EUR
49728,7329591,Holiday Home Villa Bleue,,Quiberon,France,56510,Hotels,3,47.53376007,-3.133049965,5,https://www.agoda.com/en-gb/holiday-home-villa-bleue/hotel/quiberon-fr.html,EUR
49729,7329666,HOTEL GEORGIA,KhRUSE AMMOUDIA,Thassos,Greece,64004,Hotels,2,40.73197937,24.75960922,5,https://www.agoda.com/en-gb/hotel-georgia/hotel/thassos-gr.html,EUR
49730,7329836,Aloe Hotel - Adults Only,Eparchiaki Odos Kalithion-Falirakiou,Rhodes,Greece,85105,Hotels,4,36.33697128,28.19445992,5,https://www.agoda.com/en-gb/aloe-hotel-adults-only/hotel/rhodes-gr.html,EUR
49731,732985,Dionis Hotel,13 Polkovnik Drangov Str.,Petrich,Bulgaria,2850,Hotels,2,41.39698029,23.20709991,5,https://www.agoda.com/en-gb/dionis-hotel/hotel/petrich-bg.html,EUR
49732,7329861,Petousis Hotel & Suites,Andrea Papandreou 140,Crete Island,Greece,71414,Hotels,4,35.33549881,25.06829071,5,https://www.agoda.com/en-gb/petousis-hotel-suites/hotel/crete-island-gr.html,EUR
49733,7330014,Holiday Home Bryniel,,Botwnnog,United Kingdom,,Hotels,4,52.85604095,-4.623600006,5,https://www.agoda.com/en-gb/holiday-home-bryniel/hotel/botwnnog-gb.html,GBP
49734,7330107,Two-Bedroom Holiday Home in Lokken,,Frederikshavn,Denmark,9480,Hotels,2,57.41220093,9.749250412,5,https://www.agoda.com/en-gb/two-bedroom-holiday-home-in-lokken/hotel/frederikshavn-dk.html,DKK
49735,7330111,Three-Bedroom Holiday Home in Stege,,Naestved,Denmark,4780,Hotels,4,54.97710037,12.19419956,5,https://www.agoda.com/en-gb/three-bedroom-holiday-home-in-stege/hotel/naestved-dk.html,DKK
49736,7330129,Blue Sky,Strada Meduzei nr1,Eforie Nord,Romania,905350,Hotels,3,44.07503128,28.62994957,5,https://www.agoda.com/en-gb/blue-sky/hotel/eforie-nord-ro.html,EUR
49737,7330161,Old Kings Head,Church St,Broughton in Furness,United Kingdom,,Hotels,3,54.2768898,-3.212559938,5,https://www.agoda.com/en-gb/old-kings-head/hotel/broughton-in-furness-gb.html,GBP
49738,7330162,The Crown at Playhatch,Playhatch,Shiplake,United Kingdom,,Hotels,3,51.48266983,-0.937070012,5,https://www.agoda.com/en-gb/the-crown-at-playhatch/hotel/shiplake-gb.html,GBP
49740,73310,Hotel Stadt Beelitz,Berliner Str. 195,Beelitz,Germany,14547,Hotels,3,52.23415376,12.97798499,2,http://www.booking.com/hotel/de/stadt-beelitz-schwarzer-adler.en-gb.html,EUR
49741,7331220,Plakoti Village House,,Crete Island,Greece,74100,Hotels,4,35.3465004,24.56069946,5,https://www.agoda.com/en-gb/plakoti-village-house/hotel/crete-island-gr.html,EUR
49742,7331308,Harmony Hotel & Studio,Eleutheriou Venizelou & Vlastou,Crete Island,Greece,70007,Hotels,3,35.32872009,25.07897949,5,https://www.agoda.com/en-gb/harmony-hotel-studio/hotel/crete-island-gr.html,EUR
49743,73319,WALDHOTEL SEELOW - ein Land-gut-Hotel,Waldsiedlung/ Eichendamm 9,Seelow,Germany,15306,Hotels,3,52.52172927,14.34319586,2,http://www.booking.com/hotel/de/waldhotel-seelow.en-gb.html,EUR
49744,7332,Holiday Inn Taunton,Deane Gate Avenue,Taunton,United Kingdom,,Hotels,4,51.01872635,-3.066073418,5,https://www.agoda.com/en-gb/holiday-inn-taunton/hotel/taunton-gb.html,GBP
49745,73320,Hotel Restaurant Klostermuhle,Neckartenzlinger Str. 90,Reutlingen,Germany,72766,Hotels,2,48.56452955,9.22549546,2,http://www.booking.com/hotel/de/restaurant-klostermuhle.en-gb.html,EUR
49746,733212,Ostria Hotel,"Adamas, Melos",Milos Island,Greece,84800,Hotels,2,36.72639084,24.45192909,5,https://www.agoda.com/en-gb/ostria-hotel/hotel/milos-island-gr.html,EUR
49747,7332322,One-Bedroom Holiday Home in hindas,,Gothenburg,Sweden,,Hotels,3,57.76350021,12.49670029,5,https://www.agoda.com/en-gb/one-bedroom-holiday-home-in-hindas/hotel/gothenburg-se.html,SEK
49748,7332323,Five-Bedroom Holiday Home in Lilla Edet,,Lilla Edet,Sweden,,Hotels,4,58.14009857,12.00819969,5,https://www.agoda.com/en-gb/five-bedroom-holiday-home-in-lilla-edet/hotel/lilla-edet-se.html,SEK
49749,733235,Church View B&B,"Main Street, Rathmadder, Gurteen, Co. Sligo",Gorteen,Ireland,,Hotels,4,53.99388886,-8.517310143,5,https://www.agoda.com/church-view-b-b/hotel/gorteen-ie.html,EUR
49750,7332473,Five-Bedroom Holiday Home in Soderkoping,,Norrkoping,Sweden,,Hotels,4,58.46120071,16.32670021,5,https://www.agoda.com/en-gb/five-bedroom-holiday-home-in-soderkoping/hotel/norrkoping-se.html,SEK
49751,7332476,Four-Bedroom Holiday Home in Gronskara,,Gronskara,Sweden,,Hotels,4,57.07540131,15.73419952,5,https://www.agoda.com/en-gb/four-bedroom-holiday-home-in-gronskara/hotel/gronskara-se.html,SEK
49752,7332478,Three-Bedroom Holiday Home in Hultsfred,,Hultsfred,Sweden,,Hotels,4,57.4958992,15.82419968,5,https://www.agoda.com/en-gb/three-bedroom-holiday-home-in-hultsfred/hotel/hultsfred-se.html,SEK
49753,7332485,Taylard House,Taylard House 4 Church Lane Gamlingay,Northampton,United Kingdom,,Hotels,4,52.15444946,-0.187739998,5,https://www.agoda.com/en-gb/taylard-house/hotel/northampton-gb.html,GBP
49754,7332486,Three-Bedroom Holiday Home in Axmar,,Flasta,Sweden,,Hotels,3,61.00770187,17.24189949,5,https://www.agoda.com/en-gb/three-bedroom-holiday-home-in-axmar/hotel/flasta-se.html,SEK
49755,73327,Pension Stadthalle,Hackengasse 33,Vienna,Austria,1150,Bed and breakfasts,2,48.20042111,16.33274585,2,http://www.booking.com/hotel/at/pension-stadthalle.en-gb.html,EUR
49756,7332700,Tigers Rest,,Basildon,United Kingdom,,Hotels,4,51.34421921,0.37007001,5,https://www.agoda.com/en-gb/tigers-rest/hotel/basildon-gb.html,GBP
49757,7332806,Hotel A,Mala Piresica 20,Ljubljana,Slovenia,3301,Hotels,4,46.26781845,15.18879032,5,https://www.agoda.com/en-gb/hotel-a/hotel/ljubljana-si.html,EUR
49758,733289,Residence Villa Marina,Corso Roosevelt 2,Imperia,Italy,18100,Hotels,3,43.88304901,8.023579597,5,https://www.agoda.com/en-gb/residence-villa-marina/hotel/imperia-it.html,EUR
49759,73329,Hotel Atrium,Motzstr. 87,Berlin,Germany,10779,Hotels,2,52.4935957,13.33506614,2,http://www.booking.com/hotel/de/atrium-berlin.en-gb.html,EUR
49760,73331,Mayers Waldhorn,Neckaralbstr. 47,Kusterdingen,Germany,72127,Hotels,3,48.48538339,9.1106084,2,http://www.booking.com/hotel/de/mayers-waldhorn.en-gb.html,EUR
49761,7333132,Grupotel Playa de Palma Prestige Suites & Spa,"Cami Ramal Ca na Gabriela, 4 Cami Ramal Ca na Gabriela, 4",Majorca,Spain,7600,Hotels,4,39.51353073,2.754270077,5,https://www.agoda.com/en-gb/grupotel-playa-de-palma-prestige-suites-spa/hotel/majorca-es.html,EUR
49762,7333238,Holiday Home CHAVICOTO,,Roses,Spain,17487,Hotels,3,42.24375153,3.116919994,5,https://www.agoda.com/en-gb/holiday-home-chavicoto/hotel/roses-es.html,EUR
49763,73333,Hotel-Villa Achenbach,Achenbachstr. 17,Dusseldorf,Germany,40237,Hotels,4,51.23266239,6.80721581,2,http://www.booking.com/hotel/de/achenbach.en-gb.html,EUR
49764,7333438,Hotel Forestal Senorio de las Rias (RiasResort),Camino de Granada Camino de Granada,Diezma,Spain,18180,Hotels,4,37.32067871,-3.335220099,5,https://www.agoda.com/en-gb/hotel-forestal-senorio-de-las-rias-riasresort/hotel/diezma-es.html,EUR
49765,73335,H+ Hotel Munchen,Schillerstrasse 28,Munich,Germany,80336,Hotels,4,48.13661453,11.56084657,2,http://www.booking.com/hotel/de/treff-munchen-city-centre.en-gb.html,EUR
49766,7333574,One-Bedroom Holiday Home in Farjestaden,,Kindbacksmala,Sweden,,Hotels,3,56.68099976,16.69029999,5,https://www.agoda.com/en-gb/one-bedroom-holiday-home-in-farjestaden/hotel/kindbacksmala-se.html,SEK
49767,7333577,Two-Bedroom Holiday Home in Knared,,Kristianstad,Sweden,,Hotels,4,56.48989868,13.4382,5,https://www.agoda.com/en-gb/two-bedroom-holiday-home-in-knared/hotel/kristianstad-se.html,SEK
49768,7333578,Three-Bedroom Holiday Home in Orsjo,,Orsjo,Sweden,,Hotels,4,56.68619919,15.72439957,5,https://www.agoda.com/en-gb/three-bedroom-holiday-home-in-orsjo/hotel/orsjo-se.html,SEK
49769,7333580,Five-Bedroom Holiday Home in Savedalen,,Gothenburg,Sweden,,Hotels,4,57.72370148,12.0632,5,https://www.agoda.com/en-gb/five-bedroom-holiday-home-in-savedalen/hotel/gothenburg-se.html,SEK
49770,73336,Park Inn by Radisson Nurnberg,Sandstrasse 2-8,Nurnberg,Germany,90443,Hotels,4,49.44668044,11.06850341,2,http://www.booking.com/hotel/de/nurnberg.en-gb.html,EUR
49771,733361,Hotel Palma,Viale Europa 244,Castellammare di Stabia,Italy,80053,Hotels,3,40.69844287,14.48800269,2,http://www.booking.com/hotel/it/palma-castellammare-di-stabia.en-gb.html,EUR
49772,7333692,Holiday Home Takaharju,,Ruka,Finland,97950,Hotels,3,65.99485016,28.35078049,5,https://www.agoda.com/en-gb/holiday-home-takaharju/hotel/ruka-fi.html,EUR
49773,73337,Hotel - Restaurant Erich Rodiger,Zur Herrgottsmuhle 2,Bad Staffelstein,Germany,96231,Hotels,3,50.10768674,10.99486023,2,http://www.booking.com/hotel/de/rodiger.en-gb.html,EUR
49774,7333753,Holiday Home Haverud with Sauna I,,Asaka,Sweden,,Hotels,4,58.82500076,12.41839981,5,https://www.agoda.com/en-gb/holiday-home-haverud-with-sauna-i/hotel/asaka-se.html,SEK
49775,7333767,Holiday Home Pimky,,Fishguard,United Kingdom,,Hotels,3,51.77135086,-5.0792799,5,https://www.agoda.com/en-gb/holiday-home-pimky/hotel/fishguard-gb.html,GBP
49777,7333800,Two-Bedroom Holiday Home in Hogsby,,Kindbacksmala,Sweden,,Hotels,3,57.06669998,15.98330021,5,https://www.agoda.com/en-gb/two-bedroom-holiday-home-in-hogsby/hotel/kindbacksmala-se.html,SEK
49778,7333803,One-Bedroom Holiday Home in Yngsjo,,Kristianstad,Sweden,,Hotels,3,55.85599899,14.21990013,5,https://www.agoda.com/en-gb/one-bedroom-holiday-home-in-yngsjo/hotel/kristianstad-se.html,SEK
49779,7333805,One-Bedroom Holiday Home in Arild,,Arild,Sweden,,Hotels,2,56.27119827,12.57900047,5,https://www.agoda.com/en-gb/one-bedroom-holiday-home-in-arild/hotel/arild-se.html,SEK
49780,733381,Hotel Posta,Cerny Dul 77,Cerny Dul,Czech Republic,54344,Hotels,3,50.63528061,15.71020031,5,https://www.agoda.com/en-gb/hotel-posta/hotel/cerny-dul-cz.html,EUR
49781,7333985,Theodoros,,Crete Island,Greece,73400,Hotels,4,35.55569839,23.76160049,5,https://www.agoda.com/en-gb/theodoros/hotel/crete-island-gr.html,EUR
49782,7333992,Holiday Home Ksa Sou House II,,Crete Island,Greece,70200,Hotels,3,34.99900818,24.81479073,5,https://www.agoda.com/en-gb/holiday-home-ksa-sou-house-ii/hotel/crete-island-gr.html,EUR
49783,7333995,Metropole Urban Hotel,Platia Agias Ekaterinis Periokhe Ag. Mena,Crete Island,Greece,71201,Hotels,4,35.33813095,25.13051033,5,https://www.agoda.com/en-gb/metropole-urban-hotel/hotel/crete-island-gr.html,EUR
49784,73340,Landhotel Niederthaler Hof,Niederthaler Hof,Schlossbockelheim,Germany,55596,Hotels,3,49.80171721,7.74316728,2,http://www.booking.com/hotel/de/niederthaler-hof.en-gb.html,EUR
49785,7334001,Maria Hotel Sissi,Eparchiaki Odos Sisiou 139,Crete Island,Greece,72400,Hotels,2,35.30519867,25.52422905,5,https://www.agoda.com/en-gb/maria-hotel-sissi/hotel/crete-island-gr.html,EUR
49786,73342,Centro Hotel Ariane,Hohe Pforte 19 - 21,Cologne,Germany,50676,Hotels,3,50.93371657,6.95626616,2,http://www.booking.com/hotel/de/ariane.en-gb.html,EUR
49787,7334236,IIHF 2019,Stefanikovo namestie,Stary Smokovec,Slovakia,,Hotels,4,48.94601059,20.56106949,5,https://www.agoda.com/en-gb/iihf-2019/hotel/stary-smokovec-sk.html,EUR
49788,73344,Hotel Kirchdach,62,Gschnitz,Austria,6150,Hotels,3,47.05051784,11.3640368,2,http://www.booking.com/hotel/at/kirchdach.en-gb.html,EUR
49789,733442,Camping l'Evasion,D28 Martignac,Puy-l'Eveque,France,46700,Holiday parks,3,44.525116,1.1283195,5,https://www.agoda.com/en-gb/camping-l-evasion/hotel/puy-l-eveque-fr.html,EUR
49790,733443,Hotel Beausejour,"64, Rue d'Alsace",Saint-Die-des-Vosges,France,88100,Hotels,3,48.28195122,6.952676028,5,https://www.agoda.com/fr-fr/hotel-beausejour/hotel/saint-die-des-vosges-fr.html,EUR
49791,733447,Pension Mezzaprada,Aegertaweg 1,Arosa,Switzerland,7050,Hotels,2,46.77533624,9.66366649,2,http://www.booking.com/hotel/ch/pension-mezzaprada.en-gb.html,CHF
49792,73345,Hotel Auf der Gsteig GmbH,Gsteig 1,Lechbruck,Germany,86983,Hotels,4,47.70567887,10.78745306,2,http://www.booking.com/hotel/de/landhaus-gsteig.en-gb.html,EUR
49793,73346,Hotel Garni Getreuer Eckart,Jasmunder Str. 3,Binz,Germany,18609,Hotels,3,54.39952956,13.60989064,2,http://www.booking.com/hotel/de/garni-getreuer-eckart.en-gb.html,EUR
49794,73347,Landgasthof Fiedler,Oberrossbach 3,Dietersheim,Germany,91463,Hotels,3,49.54640809,10.58714837,2,http://www.booking.com/hotel/de/landgasthof-fiedler.en-gb.html,EUR
49795,733473,Hotel Aidipsos,Papadiamanti & Filellinon,Loutra Edipsou,Greece,34300,Hotels,2,38.86125217,23.04306686,2,http://www.booking.com/hotel/gr/edipsos-hotel.en-gb.html,EUR
49796,733484,LC - Hotel Ostrava,Plzenska 2622/12,Ostrava,Czech Republic,70030,Hotels,2,49.79212031,18.24627551,2,http://www.booking.com/hotel/cz/lowcost-ostrava.en-gb.html,EUR
49797,73349,Landhaus Zum Falken,Tauberzell 41,Tauberzell,Germany,91587,Hotels,3,49.44780279,10.11544824,2,http://www.booking.com/hotel/de/landhaus-zum-falken.en-gb.html,EUR
49798,73350,Hotel Villa Neander,Hauptstr. 16,Binz,Germany,18609,Hotels,3,54.40040862,13.61266941,2,http://www.booking.com/hotel/de/villa-neander.en-gb.html,EUR
49799,73352,Hotel Belair,Alte Winterthurerstrasse 16,Wallisellen,Switzerland,8304,Hotels,4,47.41459341,8.58555123,2,http://www.booking.com/hotel/ch/belair.en-gb.html,CHF
49800,73353,Hotel Naheschlosschen,Berliner Str. 69 / Ecke Rheingrafenstr.,Bad Munster am Stein-Ebernburg,Germany,55583,Hotels,3,49.81023911,7.84486055,2,http://www.booking.com/hotel/de/naheschlosschen.en-gb.html,EUR
49801,73354,Hotel Rathausglockel,Steinstr. 7,Baden-Baden,Germany,76530,Hotels,4,48.76245341,8.24142516,2,http://www.booking.com/hotel/de/rathausglockel.en-gb.html,EUR
49802,73356,Eurostars Embassy,Landstrasser Hauptstrasse 120,Vienna,Austria,1030,Hotels,4,48.19645569,16.39581665,2,http://www.booking.com/hotel/at/eurostars-danube.en-gb.html,EUR
49803,73358,Hotel Lindauer Hof,Dammgasse 2,Lindau,Germany,88131,Hotels,4,47.54506564,9.68400031,2,http://www.booking.com/hotel/de/lindauer-hof-betriebs-gmbh.en-gb.html,EUR
49804,73359,Hotel Seppl,Natterer Strasse 8,Innsbruck,Austria,6162,Hotels,4,47.23018774,11.37683898,2,http://www.booking.com/hotel/at/seppl-familie-spa.en-gb.html,EUR
49805,733592,Motel Plitvice Zagreb,Zagrebacka obilaznica (Lucko-Jankomir),Zagreb,Croatia,10250,Hotels,2,45.77481203,15.87994874,2,http://www.booking.com/hotel/hr/motel-plitvice-zagreb-turistiaki-komplex.en-gb.html,EUR
49806,73360,Hotel Rose,Hersfelder Str. 1,Bebra,Germany,36179,Hotels,3,50.96681424,9.79647338,2,http://www.booking.com/hotel/de/roese-bebra.en-gb.html,EUR
49807,733609,Camping Paradis Nature,Route De La Forge,La Chapelle-dAngillon,France,18380,Campsites,2,47.3597643,2.44203106,2,http://www.booking.com/hotel/fr/camping-paradis-de-la-nature.en-gb.html,EUR
49808,7336467,Atlantic 'n' Riverside B&B,Easkey Co Sligo Mill Street,Easky,Ireland,,Hotels,3,54.28659058,-8.960419655,5,https://www.agoda.com/en-gb/atlantic-n-riverside-b-b/hotel/easky-ie.html,EUR
49809,73366,Natur- und Wellnesshotel Hoflehner,Gumpenberg 2,Haus im Ennstal,Austria,8967,Hotels,4,47.39848718,13.79191071,2,http://www.booking.com/hotel/at/hoflehner-knapplhof.en-gb.html,EUR
49810,7336626,Ashcroft Bed and Breakfast,"Shanagarry, Midleton, Co. Cork",Mallow,Ireland,,Hotels,4,51.85295105,-8.028809547,5,https://www.agoda.com/en-gb/ashcroft-bed-and-breakfast/hotel/mallow-ie.html,EUR
49811,73368,Hotel St. Oswald,Schartenweg 5,Bad Kleinkirchheim,Austria,9546,Hotels,4,46.83608628,13.76150653,2,http://www.booking.com/hotel/at/st-oswald.en-gb.html,EUR
49812,7336816,Village Vacances Passion L'Emeraude,Route du Grand Port,Niort,France,85420,Hotels,3,46.31182098,-0.73229003,5,https://www.agoda.com/en-gb/village-vacances-passion-l-emeraude/hotel/niort-fr.html,EUR
49923,7350418,Villetta di Daya,,Diamante,Italy,87023,Hotels,4,39.70700073,15.8114996,5,https://www.agoda.com/en-gb/villetta-di-daya/hotel/diamante-it.html,EUR
49813,73369,Simon - Hotel & Cafe,Jormannsdorfer Strasse 15,Bad Tatzmannsdorf,Austria,7431,Hotels,3,47.34034403,16.22625679,2,http://www.booking.com/hotel/at/simon-konditorei.en-gb.html,EUR
49814,733694,Hotel Terme Neroniane,"Via Neroniana, 21",Montegrotto Terme,Italy,35036,Hotels,4,45.32423973,11.79165334,2,http://www.booking.com/hotel/it/terme-neroniane.en-gb.html,EUR
49815,73371,Privathotel Stickdorn,Wilhelmstr. 17,Bad Oeynhausen,Germany,32545,Hotels,3,52.2031324,8.78871381,2,http://www.booking.com/hotel/de/stickdorn.en-gb.html,EUR
49816,73372,Heide Spa Hotel & Resort,Bitterfelder Strasse 42,Bad Duben,Germany,4849,Hotels,4,51.59956031,12.57848203,2,http://www.booking.com/hotel/de/heide-spa-resort.en-gb.html,EUR
49817,7337576,Three-Bedroom Holiday Home in Vera,,Albox,Spain,4620,Hotels,4,37.2344017,-1.840989947,5,https://www.agoda.com/en-gb/three-bedroom-holiday-home-in-vera/hotel/albox-es.html,EUR
49818,73377,Hotel Vollmann,Eisenkramergasse 4,Weilheim in Oberbayern,Germany,82362,Hotels,3,47.84002385,11.14232808,2,http://www.booking.com/hotel/de/vollmann.en-gb.html,EUR
49819,7337855,Two-Bedroom Holiday Home in Camping Caravana La Ma,,La Manga del Mar Menor,Spain,30385,Hotels,3,37.62469864,-0.743799984,5,https://www.agoda.com/en-gb/two-bedroom-holiday-home-in-camping-caravana-la-ma/hotel/la-manga-del-mar-menor-es.html,EUR
49820,73380,Hotel Klute,Lotter Strasse 30,Osnabruck,Germany,49078,Hotels,2,52.27460605,8.03148597,2,http://www.booking.com/hotel/de/akzent-klute.en-gb.html,EUR
49821,7338348,Holiday Home Pajalan honka,,Ruka,Finland,93800,Hotels,3,66.07053375,29.11553955,5,https://www.agoda.com/en-gb/holiday-home-pajalan-honka/hotel/ruka-fi.html,EUR
49822,73384,Dorint Hotel Alzey/Worms,Karl-Heinz-Kipp-Strasse 13,Alzey,Germany,55232,Hotels,3,49.74412088,8.13857853,2,http://www.booking.com/hotel/de/best-western-alzey.en-gb.html,EUR
49823,7338409,Holiday Home Mellaniemi,,Ivalo,Finland,99800,Hotels,3,69.16616058,27.86356926,5,https://www.agoda.com/en-gb/holiday-home-mellaniemi/hotel/ivalo-fi.html,EUR
49824,7338552,Holiday Home Virsuniemi,,Suomussalmi,Finland,89600,Hotels,4,65.3025589,29.03861046,5,https://www.agoda.com/en-gb/holiday-home-virsuniemi/hotel/suomussalmi-fi.html,EUR
49825,7338664,Three-Bedroom Holiday Home in Fericanci,,Slavonski Brod,Croatia,31512,Hotels,3,45.51689911,17.97060013,5,https://www.agoda.com/en-gb/three-bedroom-holiday-home-in-fericanci/hotel/slavonski-brod-hr.html,EUR
49826,7339107,Naiades Marina Hotel,"Anapafseos 7,",Crete Island,Greece,72100,Hotels,3,35.18717957,25.71434021,5,https://www.agoda.com/en-gb/naiades-marina-hotel/hotel/crete-island-gr.html,EUR
49827,73392,Hotel Herrmann,Marktplatz,Munsingen,Germany,72525,Hotels,4,48.41306817,9.49484214,2,http://www.booking.com/hotel/de/herrmann.en-gb.html,EUR
49828,73393,Haus am Spreebogen,Altstadt 27,Furstenwalde,Germany,15517,Hotels,3,52.36049283,14.05542433,2,http://www.booking.com/hotel/de/haus-am-spreebogen.en-gb.html,EUR
49829,73395,Anna Hotel,Schutzenstrasse 1,Munich,Germany,80335,Hotels,4,48.13940058,11.56385466,2,http://www.booking.com/hotel/de/anna-munchen.en-gb.html,EUR
49830,73398,Hotel Oranien,Oranienstrasse 10,Nastatten,Germany,56355,Hotels,2,50.19440039,7.8543663,2,http://www.booking.com/hotel/de/oranien.en-gb.html,EUR
49831,73399,Bernrieder Hof,Bogener Str. 9,Bernried,Germany,94505,Hotels,3,48.91714473,12.88105801,2,http://www.booking.com/hotel/de/bernrieder-hof.en-gb.html,EUR
49832,73400,Hotel Excelsior,Schutzenstrasse 11,Munich,Germany,80335,Hotels,4,48.13990085,11.56205356,2,http://www.booking.com/hotel/de/excelsior-munchen.en-gb.html,EUR
49833,7340049,Hotel Anna,"Via del Canaletto, 215/c",Campo nell'Elba,Italy,57034,Hotels,3,42.73477936,10.15013027,5,https://www.agoda.com/en-gb/hotel-anna/hotel/campo-nell-elba-it.html,EUR
49834,7340061,Le Commerce,59 Place general Leclerc,Nancy,France,88270,Hotels,2,48.22084045,6.227180004,5,https://www.agoda.com/en-gb/le-commerce/hotel/nancy-fr.html,EUR
49835,73403,Hotel National,Ritterstr. 16,Bad Duben,Germany,4849,Hotels,3,51.59088428,12.58325905,2,http://www.booking.com/hotel/de/national-bad-duben.en-gb.html,EUR
49836,734035,Arhontiko Parnona,Karyes,Karyes,Greece,23067,Hotels,3,37.29366933,22.50619733,2,http://www.booking.com/hotel/gr/arhontiko-parnona-karyes.en-gb.html,EUR
49837,7340456,Hotel Paris Madrid,703 Route de Tireculotte,Biarritz,France,40260,Hotels,2,43.97529984,-1.054389954,5,https://www.agoda.com/en-gb/hotel-paris-madrid/hotel/biarritz-fr.html,EUR
49838,734061,Ibis Budget Barcelona Sant Andreu De La Barca,Energia 1,Sant Andreu de la Barca,Spain,8740,Hotels,2,41.45359695,1.97464228,2,http://www.booking.com/hotel/es/ibis-budget-barcelona-sant-andreu-de-la-barca.en-gb.html,EUR
49839,734063,Comfort Hotel Linas - Montlhery,10 avenue Ettore Bugatti,Montlhery,France,91310,Hotels,3,48.62949618,2.262391,2,http://www.booking.com/hotel/fr/comfort-hotel-linas-montlhery.en-gb.html,EUR
49840,734088,Hotel Therapia,Malics Otto ut 1/3.,Pecs,Hungary,7635,Hotels,3,46.08932114,18.22846985,5,https://www.agoda.com/en-gb/hotel-therapia/hotel/pecs-hu.html,EUR
49841,73411,Speicher Barth - DESIGNHOTEL,Am Osthafen 2,Barth,Germany,18356,Hotels,4,54.37031799,12.73109704,2,http://www.booking.com/hotel/de/speicher-barth.en-gb.html,EUR
49842,73412,Tagungshotel Eifelkern,Monschauer Strasse 5,Schleiden,Germany,53937,Hotels,3,50.529477,6.47510201,2,http://www.booking.com/hotel/de/tagungshotel-schleiden.en-gb.html,EUR
49843,73414,Dittmers Hotel,Neumarkt 2-3,Flensburg,Germany,24937,Hotels,3,54.78000223,9.43554729,2,http://www.booking.com/hotel/de/dittmers-gasthof.en-gb.html,EUR
49844,73415,Seehotel Sternen,Winkelstrasse 46,Luzern,Switzerland,6048,Hotels,4,47.01193383,8.31621855,2,http://www.booking.com/hotel/ch/seehotel-sternen.en-gb.html,CHF
49845,73416,Romantik Hotel Santis,Landsgemeindeplatz 3,Appenzell,Switzerland,9050,Hotels,4,47.3317371,9.40782934,2,http://www.booking.com/hotel/ch/romantik-santis.en-gb.html,CHF
49846,73420,Hotel Wienerhof,Haus Nr. 13,Trins,Austria,6152,Hotels,3,47.08296858,11.41699702,2,http://www.booking.com/hotel/at/wienerhof.en-gb.html,EUR
49847,7342152,Hotel Galaxy Sea & Sky,7 Neraidas,Loutraki,Greece,20300,Hotels,2,37.98532616,22.96191228,5,https://www.agoda.com/en-gb/hotel-galaxy-sea-sky/hotel/loutraki-gr.html,EUR
49848,73422,Kraners Alpenhof,Oberdorf 13,Weissensee,Austria,9762,Hotels,3,46.72190992,13.25819135,2,http://www.booking.com/hotel/at/kraners-alpenhof.en-gb.html,EUR
49849,73422,City Partner Hotel Atos,Melnicka 13,Prague,Czech Republic,15000,Hotels,3,50.07991409,14.40507793,5,https://www.agoda.com/en-gb/city-partner-hotel-atos/hotel/prague-cz.html,EUR
49850,7342202,Locanda Posta,Piazza IV Novembre 5,Quarna Sotto,Italy,28896,Hotels,2,45.86857986,8.363180161,5,https://www.agoda.com/en-gb/locanda-posta/hotel/quarna-sotto-it.html,EUR
49851,73423,Britannia Hotel Bournemouth,East Cliff,Bournemouth,United Kingdom,,Hotels,3,50.71954727,-1.86649406,5,https://www.agoda.com/en-gb/britannia-hotel-bournemouth/hotel/bournemouth-gb.html,GBP
49852,73424,Hotel Wittelsbach am Kurfurstendamm,Wittelsbacherstr. 22,Berlin,Germany,10707,Hotels,3,52.49511605,13.31001163,2,http://www.booking.com/hotel/de/wittelsbach-am-kurfurstendamm.en-gb.html,EUR
49853,73426,Landferienhotel Augustin,Schwabthal 3,Schwabthal,Germany,96231,Hotels,3,50.0646945,11.07139438,2,http://www.booking.com/hotel/de/landromantikhotel-augustin.en-gb.html,EUR
49854,73427,Hotel Continental Ischia,Via Michele Mazzella 74,Ischia Island,Italy,80077,Hotels,4,40.73115158,13.9443903,5,https://www.agoda.com/en-gb/hotel-continental-ischia/hotel/ischia-island-it.html,EUR
49855,73428,City Hotel,Theodor-Heuss-Ring 15,Geilenkirchen,Germany,52511,Hotels,3,50.96188365,6.12402886,2,http://www.booking.com/hotel/de/city-geilenkirchen.en-gb.html,EUR
49856,73430,Hotel Attache,Frankfurter Strasse 34,Raunheim,Germany,65479,Hotels,3,50.01685798,8.45523611,2,http://www.booking.com/hotel/de/attache.en-gb.html,EUR
49857,7343079,Shore Hotel,"Shore Hotel, Shore Road, Gansey, Isle of Man",Kearney,United Kingdom,,Hotels,4,54.0850296,-4.720709801,5,https://www.agoda.com/en-gb/shore-hotel/hotel/kearney-gb.html,GBP
49858,7343080,Holiday Home Fanks,,Paible,United Kingdom,,Hotels,3,57.50318146,-6.416120052,5,https://www.agoda.com/en-gb/holiday-home-fanks/hotel/paible-gb.html,GBP
49859,7343400,Newmans Hall Bed & Breakfast,Newmans Hall Farm Little Waldingfield,Little Waldingfield,United Kingdom,,Hotels,4,52.07725906,0.813250005,5,https://www.agoda.com/en-gb/newmans-hall-bed-breakfast/hotel/little-waldingfield-gb.html,GBP
49860,73435,Hotel Provinces Opera,36 rue de l'Echiquier,Paris,France,75010,Hotels,3,48.87163162,2.349900007,5,https://www.agoda.com/en-gb/hotel-provinces-opera/hotel/paris-fr.html,EUR
49861,7343695,Holiday Home Pen-y-Bwlch,,Chester,United Kingdom,,Hotels,4,53.16262054,-3.485359907,5,https://www.agoda.com/en-gb/holiday-home-pen-y-bwlch/hotel/chester-gb.html,GBP
49862,7343740,Domaine Du Roc Nantais,Faubourg Bas,Nant,France,12230,Resorts,3,44.02083969,3.303580046,5,https://www.agoda.com/en-gb/domaine-du-roc-nantais/hotel/nant-fr.html,EUR
49863,7343892,Apartment Green Four Stars,21 Veruda ulica,Pula,Croatia,52100,Hotels,4,44.85757065,13.83152962,5,https://www.agoda.com/en-gb/apartment-green-four-stars/hotel/pula-hr.html,EUR
49864,7344005,Holiday Home Achalic Beag,,Oban,United Kingdom,,Hotels,4,56.37400818,-5.473249912,5,https://www.agoda.com/en-gb/holiday-home-achalic-beag/hotel/oban-gb.html,GBP
49865,7344061,Holiday Home Sandford.2,,Tayport,United Kingdom,,Hotels,4,56.40549088,-2.96281004,5,https://www.agoda.com/en-gb/holiday-home-sandford-2/hotel/tayport-gb.html,GBP
49866,7344062,The Old Farmhouse Lelant,The Old Farmhouse Fore Street,Saint Ives (Cornwall),United Kingdom,,Hotels,3,50.18384171,-5.440179825,5,https://www.agoda.com/en-gb/the-old-farmhouse-lelant/hotel/saint-ives-cornwall-gb.html,GBP
49867,7344113,Luxe Luxury Apartments Broadstreet,60 Granville Street,Birmingham,United Kingdom,,Hotels,4,52.47605896,-1.911299944,5,https://www.agoda.com/en-gb/luxe-luxury-apartments-broadstreet/hotel/birmingham-gb.html,GBP
49868,73443,Hotel Blutenburg,Verdistrasse 130,Munich,Germany,81247,Hotels,3,48.16494942,11.46149285,2,http://www.booking.com/hotel/de/blutenburg.en-gb.html,EUR
49869,7344300,Casa Ornella,,Castel Di Tusa,Italy,90015,Hotels,3,37.99470139,14.04609966,5,https://www.agoda.com/en-gb/casa-ornella/hotel/castel-di-tusa-it.html,EUR
49870,734464,Kurhotel Sonnmatt Luzern,Hemschlenstrasse,Luzern,Switzerland,6006,Hotels,4,47.05978385,8.34760708,2,http://www.booking.com/hotel/ch/sonnmatt-luzern.en-gb.html,CHF
49871,734482,Hotel Villa Miralisa,"Via Fumerie, 16",Ischia,Italy,80075,Hotels,3,40.70046315,13.88001323,2,http://www.booking.com/hotel/it/villa-miralisa.en-gb.html,EUR
49872,73450,Hotel Alpenruh,Schilthornbahn AG,Murren,Switzerland,3825,Hotels,3,46.55832914,7.89157659,2,http://www.booking.com/hotel/ch/alpenruh.en-gb.html,CHF
49873,73450,Tryp Las Matas Hotel,"C/ Martin Iriarte, 2F",Madrid,Spain,28290,Hotels,3,40.5496196,-3.8938151,5,https://www.agoda.com/en-gb/tryp-las-matas-hotel/hotel/madrid-es.html,EUR
49874,73452,Strandhotel,Seestr. 1,Weissenhauser Strand,Germany,23758,Hotels,4,54.31022075,10.80147028,2,http://www.booking.com/hotel/de/strandhotel.en-gb.html,EUR
49875,73457,Villa Modigliani Hotel,13 Rue Delambre,Paris,France,75014,Hotels,3,48.84164429,2.328511477,5,https://www.agoda.com/en-gb/villa-modigliani-hotel/hotel/paris-fr.html,EUR
49876,73460,Hallmark Hotel Stourport Manor,35 Hartlebury Road,Stourport-on-Severn,United Kingdom,,Hotels,4,52.34140271,-2.259466052,5,https://www.agoda.com/en-gb/hallmark-hotel-stourport-manor/hotel/stourport-on-severn-gb.html,GBP
49877,734602,Congo Hotel,Zefyros,Rhodes Town,Greece,85100,Hotels,2,36.43193078,28.23582888,2,http://www.booking.com/hotel/gr/congo-rhodes-town.en-gb.html,EUR
49878,73461,Alpenherz Hotel Garni,Nr. 130,Gerlos,Austria,6281,Hotels,4,47.2248618,12.03200072,2,http://www.booking.com/hotel/at/garni-erhart.en-gb.html,EUR
49879,73463,Bio Thermalhotel Falkenhof,Paracelsusstrasse 4,Bad Fussing,Germany,94072,Hotels,4,48.35010857,13.32167387,2,http://www.booking.com/hotel/de/vitalhotel-falkenhof.en-gb.html,EUR
49880,7346377,HOTEL DELLE ALPI,Frazione Ghigo 10,Turin,Italy,10060,Hotels,3,44.88888931,7.048679829,5,https://www.agoda.com/en-gb/hotel-delle-alpi/hotel/turin-it.html,EUR
49881,73465,Hotel De La Paix,Bernastrasse 24,Interlaken,Switzerland,3800,Hotels,3,46.68039311,7.85401896,2,http://www.booking.com/hotel/ch/de-la-paix-interlaken.en-gb.html,CHF
49882,73466,Hotel Dralle,Harburger Strasse 13,Bergen,Germany,29303,Hotels,3,52.81079549,9.96129781,2,http://www.booking.com/hotel/de/bade.en-gb.html,EUR
49883,734687,La Locanda Di San Francesco,Via San Francesco 47,Viggianello,Italy,85040,Hotels,3,39.97234528,16.08827055,2,http://www.booking.com/hotel/it/la-locanda-di-san-francesco-viggianello.en-gb.html,EUR
49884,734699,Ibis budget Issoire,4 Avenue du Docteur Bienfait,Issoire,France,63500,Hotels,2,45.5512255,3.26985687,2,http://www.booking.com/hotel/fr/ibis-budget-issoire.en-gb.html,EUR
49885,7347086,Villa Margherita,,Isola Albarella,Italy,37010,Hotels,3,45.06259918,12.34720039,5,https://www.agoda.com/en-gb/villa-margherita/hotel/isola-albarella-it.html,EUR
49962,73551,Sporthotel Malchow,Schulstrasse 6,Malchow,Germany,17213,Hotels,3,53.46987564,12.40997761,2,http://www.booking.com/hotel/de/sporthotel-malchow-gmbh.en-gb.html,EUR
49886,73471,Hotel Schloss Leonstain,Leonstainerstrasse 1,Portschach am Worthersee,Austria,9210,Hotels,4,46.6367707,14.13751602,2,http://www.booking.com/hotel/at/schloss-leonstain.en-gb.html,EUR
49887,7347300,Four-Bedroom Holiday Home in Fontanile,,Fontanile,Italy,14044,Hotels,3,44.75120163,8.416110039,5,https://www.agoda.com/en-gb/four-bedroom-holiday-home-in-fontanile/hotel/fontanile-it.html,EUR
49888,7347328,Hotel Gargano Village,"C.da Pantanello, sn 71012 RODI GARGANICO ( FG ) CONTRADA PANTANELLO",Ripalta,Italy,71012,Hotels,3,41.92541885,15.84426022,5,https://www.agoda.com/en-gb/hotel-gargano-village/hotel/ripalta-it.html,EUR
49889,734734,Motel One Frankfurt Messe,Europa-Allee 25,Frankfurt/Main,Germany,60327,Hotels,3,50.10875843,8.65126133,2,http://www.booking.com/hotel/de/motel-one-fraknfurt-messe.en-gb.html,EUR
49890,7347342,One-Bedroom Holiday Home in Erli,,San Remo,Italy,17030,Hotels,3,44.13359833,8.107239723,5,https://www.agoda.com/en-gb/one-bedroom-holiday-home-in-erli/hotel/san-remo-it.html,EUR
49891,7347373,Campo dei Messapi,Via Borraco 224,Manduria,Italy,74024,Hotels,3,40.30384827,17.64776993,5,https://www.agoda.com/en-gb/campo-dei-messapi/hotel/manduria-it.html,EUR
49892,7347423,Villa Erminia,,Maratea,Italy,85046,Hotels,3,39.99100113,15.71640015,5,https://www.agoda.com/en-gb/villa-erminia/hotel/maratea-it.html,EUR
49893,734784,London Full House,116 New Kent Road,London,United Kingdom,,Hotels,3,51.49377033,-0.093898773,5,https://www.agoda.com/en-gb/london-full-house/hotel/london-gb.html,GBP
49894,7347877,TH San Teodoro Liscia Eldi Village,Via L'Isuledda,San Teodoro,Italy,8020,Hotels,4,40.76620102,9.682330132,5,https://www.agoda.com/en-gb/th-san-teodoro-liscia-eldi-village/hotel/san-teodoro-it.html,EUR
49895,7347999,Avondale Farmhouse B&B,"Lough Derg Rd, Pettigo",Pettigo,Ireland,,Hotels,3,54.55799866,-7.831480026,5,https://www.agoda.com/en-gb/avondale-farmhouse-b-b/hotel/pettigo-ie.html,EUR
49896,73480,Hotel Schwedenkrone,Richeyweg 15,Stade,Germany,21682,Hotels,3,53.59644312,9.43849236,2,http://www.booking.com/hotel/de/schwedenkrone.en-gb.html,EUR
49897,73481,Sunibel Inn,Hirschbachstr. 46,Reinheim,Germany,64354,Hotels,3,49.84520941,8.81042898,2,http://www.booking.com/hotel/de/sunibel-inn.en-gb.html,EUR
49898,73482,The George Hamburg,Barcastr. 3,Hamburg,Germany,22087,Hotels,4,53.5610934,10.01472473,2,http://www.booking.com/hotel/de/the-george-hamburg.en-gb.html,EUR
49899,7348346,Ty Cameron,,Fishguard,United Kingdom,,Hotels,4,51.96207047,-5.013840199,5,https://www.agoda.com/en-gb/ty-cameron/hotel/fishguard-gb.html,GBP
49900,73485,Hotel am Muritz-Nationalpark,Specker Str. 71,Waren,Germany,17192,Hotels,3,53.49510676,12.69271195,2,http://www.booking.com/hotel/de/superior-am-muritz-nationalpark.en-gb.html,EUR
49901,73487,Maiers Kuschelhotel Loipersdorf Deluxe - ADULTS ONLY,"Henndorf, Therme 7",Loipersdorf bei Furstenfeld,Austria,8282,Hotels,4,46.98431283,16.12074137,2,http://www.booking.com/hotel/at/maiers-kuschelhotel-loipersdorf.en-gb.html,EUR
49902,73489,Waldhotel Sulzbachtal,Im Sulzbachtal 2,Schonaich,Germany,71101,Hotels,3,48.66665331,9.09159422,2,http://www.booking.com/hotel/de/waldhotel-sulzbachtal.en-gb.html,EUR
53053,7519228,Elzet Hotel,Mesice 474,Tabor,Czech Republic,,Hotels,3,49.40447998,14.71778965,5,https://www.agoda.com/en-gb/elzet-hotel/hotel/tabor-cz.html,EUR
53054,75193,Hunguest Hotel Bal Resort,Bajcsy-Zsilinszky u. 14,Balatonalmadi,Hungary,8220,Hotels,4,47.02980971,18.02007392,2,http://www.booking.com/hotel/hu/hunguest-hotel-bal-resort.en-gb.html,EUR
53055,7519394,PRIVAT Pacholik,Dolni 488,Rokytnice nad Jizerou,Czech Republic,,Hotels,3,50.71976852,15.42434978,5,https://www.agoda.com/en-gb/privat-pacholik/hotel/rokytnice-nad-jizerou-cz.html,EUR
53056,75194,Hotel Parlament,Kalman Imre utca 19.,Budapest,Hungary,1054,Hotels,4,47.50684163,19.05312538,2,http://www.booking.com/hotel/hu/hotel-parlament.en-gb.html,EUR
53057,75195,Petnehazy Club Hotel Superior,Feketefej u. 2-4,Budapest,Hungary,1029,Hotels,3,47.54154497,18.9356339,2,http://www.booking.com/hotel/hu/petnhehazy-clubhotel.en-gb.html,EUR
53058,75196,Club Hotel Abbazia,Erzsebet Kiralyne Utja 23.,Keszthely,Hungary,8360,Hotels,3,46.76396254,17.24665761,2,http://www.booking.com/hotel/hu/club-abbazia.en-gb.html,EUR
53059,7520059,Horsky hotel Hanicka,30 Stribrna,Spindleruv Mlyn,Czech Republic,,Hotels,3,50.72793961,15.61297989,5,https://www.agoda.com/en-gb/horsky-hotel-hanicka/hotel/spindleruv-mlyn-cz.html,EUR
53060,75202,Hotel Yacht Wellness & Business,Vitorlas U. 14,Siofok,Hungary,8600,Hotels,4,46.91037265,18.04142296,2,http://www.booking.com/hotel/hu/yacht-club.en-gb.html,EUR
53061,75203,Hotel Veritas,Mogyorodi Ut 8,Budapest,Hungary,1143,Hotels,3,47.50344432,19.10893142,2,http://www.booking.com/hotel/hu/veritas.en-gb.html,EUR
53062,75204,Hotel Romantik Eger,Csiky Sandor 26,Eger,Hungary,3300,Hotels,3,47.90334695,20.37038773,2,http://www.booking.com/hotel/hu/romantik.en-gb.html,EUR
53063,7520444,Lazne Aurora,Lazenska 1001 Lazne Aurora,Trebon,Czech Republic,,Hotels,4,49.00238037,14.75125027,5,https://www.agoda.com/en-gb/lazne-aurora/hotel/trebon-cz.html,EUR
53064,75205,Corvin Hotel Budapest Sissi Wing,Angyal utca 31,Budapest,Hungary,1094,Hotels,3,47.48338577,19.07031566,2,http://www.booking.com/hotel/hu/sissi.en-gb.html,EUR
53065,75208,Central Green Hotel,Sziv utca 13,Budapest,Hungary,1063,Hotels,3,47.50817513,19.07031834,2,http://www.booking.com/hotel/hu/central-dominik-pension.en-gb.html,EUR
53066,75209,Hotel Viktoria,Deak Ferenc 6,Sarvar,Hungary,9600,Hotels,3,47.25403535,16.9384557,2,http://www.booking.com/hotel/hu/viktoria.en-gb.html,EUR
53067,75210,Hotel Europa Fit Superior Heviz,Jokai ut 3.,Heviz,Hungary,8380,Hotels,4,46.7916513,17.18979344,2,http://www.booking.com/hotel/hu/europa-fit-superior.en-gb.html,EUR
53068,75211,Danubius Hotel Flamenco,Tas vezer u. 7.,Budapest,Hungary,1113,Hotels,4,47.47771369,19.03954268,2,http://www.booking.com/hotel/hu/congress-park-flamenco.en-gb.html,EUR
53069,75214,Casati Budapest Hotel Superior,Paulay Ede utca 31,Budapest,Hungary,1061,Hotels,3,47.5012047,19.05883849,2,http://www.booking.com/hotel/hu/casati-budapest-superior.en-gb.html,EUR
53070,75216,Komfort Hotel Platan,Bartok Bela 15,Harkany,Hungary,7815,Hotels,3,45.85536227,18.24264765,2,http://www.booking.com/hotel/hu/komfort-platan.en-gb.html,EUR
53071,75217,Star City Hotel,Istvan utca 14,Budapest,Hungary,1078,Hotels,3,47.50478153,19.08143342,2,http://www.booking.com/hotel/hu/star.en-gb.html,EUR
53072,75218,"Revesz Hotel, Restaurant and Rosa Spa",Hedervari ut 22.,Gyor,Hungary,9026,Hotels,3,47.69644928,17.62976557,2,http://www.booking.com/hotel/hu/revesz.en-gb.html,EUR
53073,75219,Palace Hotel Heviz,Rakoczi u. 1-3,Heviz,Hungary,8380,Hotels,4,46.79058252,17.18927979,2,http://www.booking.com/hotel/hu/palace-heviz.en-gb.html,EUR
53074,75221,Hotel Palota City,Regi Foti ut 59,Budapest,Hungary,1152,Hotels,3,47.56289168,19.12491202,2,http://www.booking.com/hotel/hu/tomega-city.en-gb.html,EUR
53075,75222,Boutique Hotel Budapest,So utca 6.,Budapest,Hungary,1056,Hotels,4,47.48804588,19.05803919,2,http://www.booking.com/hotel/hu/boutique-budapest.en-gb.html,EUR
53077,75231,Hotel Isabell Gyor,Lakatos utca 15,Gyor,Hungary,9025,Hotels,4,47.68832307,17.61988699,2,http://www.booking.com/hotel/hu/isabell.en-gb.html,EUR
53078,75233,Mercure Budapest City Center,Vaci utca 20.,Budapest,Hungary,1052,Hotels,4,47.49405393,19.05253261,2,http://www.booking.com/hotel/hu/taverna.en-gb.html,EUR
53079,75237,NaturMed Hotel Carbona,Attila u. 1.,Heviz,Hungary,8380,Hotels,4,46.79137952,17.18797624,2,http://www.booking.com/hotel/hu/naturmed-carbona.en-gb.html,EUR
53080,75238,Hotel Venus,Sport Utca 10,Zalakaros,Hungary,8749,Hotels,3,46.55004931,17.12225407,2,http://www.booking.com/hotel/hu/venus.en-gb.html,EUR
53081,7524,Ibis Padova,Corso Stati Uniti 14 B,Padua,Italy,35127,Hotels,3,45.39374924,11.93438244,5,https://www.agoda.com/en-gb/ibis-padova/hotel/padua-it.html,EUR
53082,75241,City Hotel Pilvax,Pilvax Koz 1-3,Budapest,Hungary,1052,Hotels,3,47.49397963,19.05483931,2,http://www.booking.com/hotel/hu/city-pilvax.en-gb.html,EUR
53083,75242,Hotel Klastrom,Zechmeister u. 1,Gyor,Hungary,9021,Hotels,3,47.68627371,17.63095379,2,http://www.booking.com/hotel/hu/klastrom.en-gb.html,EUR
53084,75243,Regency Suites Hotel Budapest,Madach Ter 2,Budapest,Hungary,1075,Hotels,4,47.49724888,19.05714869,2,http://www.booking.com/hotel/hu/regency-suites.en-gb.html,EUR
53085,75247,Wellness Hotel Kager Harkany,50-52 Szent Istvan,Harkany,Hungary,7815,Hotels,4,45.85382295,18.2306689,2,http://www.booking.com/hotel/hu/kager.en-gb.html,EUR
53086,75249,Ibis Styles Budapest Center,Rakoczi ut 58.,Budapest,Hungary,1074,Hotels,3,47.49784871,19.07259285,2,http://www.booking.com/hotel/hu/mercure-budapest-metropol.en-gb.html,EUR
53087,75250,Mercure Budapest Korona,Kecskemeti utca 14.,Budapest,Hungary,1053,Hotels,4,47.49003958,19.06109691,2,http://www.booking.com/hotel/hu/mercure-budapest-korona.en-gb.html,EUR
53088,75252,Novotel Budapest Danube,Bem rakpart 33-34.,Budapest,Hungary,1027,Hotels,4,47.50851755,19.03895795,2,http://www.booking.com/hotel/hu/novotel-budapest-danube.en-gb.html,EUR
53089,75253,Ibis Styles Budapest City,Soroksari ut 12.,Budapest,Hungary,1095,Hotels,3,47.47912407,19.06835496,2,http://www.booking.com/hotel/hu/mercure-budapest-duna.en-gb.html,EUR
53090,75255,Hotel Museum Budapest,Trefort 2,Budapest,Hungary,1088,Hotels,4,47.49364254,19.06334996,2,http://www.booking.com/hotel/hu/hotel-museum-budapest.en-gb.html,EUR
53091,75256,King's Hotel,Nagy Diofa utca 25-27.,Budapest,Hungary,1072,Hotels,3,47.49858806,19.06403393,2,http://www.booking.com/hotel/hu/king-s.en-gb.html,EUR
53092,75262,Atrium Fashion Hotel,Csokonai utca 14,Budapest,Hungary,1081,Hotels,4,47.49599485,19.0725714,2,http://www.booking.com/hotel/hu/atrium.en-gb.html,EUR
53093,75263,Novotel Budapest City,Alkotas u. 63-67.,Budapest,Hungary,1123,Hotels,4,47.48824526,19.02357817,2,http://www.booking.com/hotel/hu/novotel-budapest-congress-and-budapest-congress-world-trade-center.en-gb.html,EUR
53094,75266,Novotel Budapest Centrum,Rakoczi ut 43-45.,Budapest,Hungary,1088,Hotels,4,47.49740292,19.07193035,2,http://www.booking.com/hotel/hu/novotel-budapest-centrum.en-gb.html,EUR
53095,752661,Hotel Europa,Via della Stazione 137,Taggia,Italy,18018,Hotels,2,43.83377838,7.855020046,5,https://www.agoda.com/en-gb/hotel-europa/hotel/taggia-it.html,EUR
53096,752668,Hotel Lora,Via Dei Bagni 1,Bordighera,Italy,18012,Hotels,3,43.78495026,7.680870056,5,https://www.agoda.com/en-gb/hotel-lora/hotel/bordighera-it.html,EUR
53097,75268,Hotel Piroska,Kossuth Lajos utca 60.,Buk,Hungary,9737,Hotels,4,47.37552969,16.76373124,2,http://www.booking.com/hotel/hu/piroska.en-gb.html,EUR
53098,7527,H*TOP Gran Casino Royal,"Esports, s/n",Lloret De Mar,Spain,17310,Hotels,3,41.701805,2.842039,5,https://www.agoda.com/en-gb/h-top-gran-casino-royal/hotel/lloret-de-mar-es.html,EUR
53099,75272,Hotel Papillon,Rozsahegy 3/b,Budapest,Hungary,1024,Hotels,3,47.51342544,19.03100789,2,http://www.booking.com/hotel/hu/papillon.en-gb.html,EUR
